FMT, 128, 89, FMT, BBnNZ, Type,Length,Name,Format,Columns
FMT, 129, 23, PARM, Nf, Name,Value
FMT, 130, 45, GPS, BIHBcLLeeEefI, Status,TimeMS,Week,NSats,HDop,Lat,Lng,RelAlt,Alt,Spd,GCrs,VZ,T
FMT, 131, 31, IMU, Iffffff, TimeMS,GyrX,GyrY,GyrZ,AccX,AccY,AccZ
FMT, 132, 67, MSG, Z, Message
FMT, 133, 35, RCIN, Ihhhhhhhhhhhhhh, TimeMS,C1,C2,C3,C4,C5,C6,C7,C8,C9,C10,C11,C12,C13,C14
FMT, 134, 23, RCOU, Ihhhhhhhh, TimeMS,Chan1,Chan2,Chan3,Chan4,Chan5,Chan6,Chan7,Chan8
FMT, 136, 21, BARO, Iffcf, TimeMS,Alt,Press,Temp,CRt
FMT, 137, 13, POWR, ICCH, TimeMS,Vcc,VServo,Flags
FMT, 145, 41, CMD, IHHHfffffff, TimeMS,CTot,CNum,CId,Prm1,Prm2,Prm3,Prm4,Lat,Lng,Alt
FMT, 146, 16, RAD, IBBBBBHH, TimeMS,RSSI,RemRSSI,TxBuf,Noise,RemNoise,RxErrors,Fixed
FMT, 148, 31, CAM, IHLLeeccC, GPSTime,GPSWeek,Lat,Lng,Alt,RelAlt,Roll,Pitch,Yaw
FMT, 25, 25, ATUN, BBfffff, Axis,TuneStep,RateMin,RateMax,RPGain,RDGain,SPGain
FMT, 26, 9, ATDE, cf, Angle,Rate
FMT, 9, 23, CURR, IhIhhhf, TimeMS,ThrOut,ThrInt,Volt,Curr,Vcc,CurrTot
FMT, 12, 20, OF, hhBccee, Dx,Dy,SQual,X,Y,Roll,Pitch
FMT, 5, 47, NTUN, Iffffffffff, TimeMS,DPosX,DPosY,PosX,PosY,DVelX,DVelY,VelX,VelY,DAccX,DAccY
FMT, 4, 33, CTUN, Ihhhffecchh, TimeMS,ThrIn,AngBst,ThrOut,DAlt,Alt,BarAlt,DSAlt,SAlt,DCRt,CRt
FMT, 15, 25, MAG, Ihhhhhhhhh, TimeMS,MagX,MagY,MagZ,OfsX,OfsY,OfsZ,MOfsX,MOfsY,MOfsZ
FMT, 6, 17, PM, HHIhBHB, NLon,NLoop,MaxT,PMT,I2CErr,INSErr,INAVErr
FMT, 1, 23, ATT, IccccCCCC, TimeMS,DesRoll,Roll,DesPitch,Pitch,DesYaw,Yaw,ErrRP,ErrYaw
FMT, 3, 6, MODE, Mh, Mode,ThrCrs
FMT, 10, 3, STRT, , 
FMT, 13, 4, EV, B, Id
FMT, 20, 6, D16, Bh, Id,Value
FMT, 21, 6, DU16, BH, Id,Value
FMT, 22, 8, D32, Bi, Id,Value
FMT, 23, 8, DU32, BI, Id,Value
FMT, 24, 8, DFLT, Bf, Id,Value
FMT, 19, 5, ERR, BB, Subsys,ECode
MSG, ArduCopter V3.2.1 (36b405fb)
MSG, Frame: QUAD
MODE, Stabilize, 327
EV, 10
MODE, Stabilize, 327
CTUN, 146212, 0, 0, 0, 0, 1.05, 0.01, 0.00, 0.00, 0, 3
GPS, 3, 120246200, 1902, 10, 1.41, 60.1915356, 24.7366065, 0.00, 10.86, 0.17, 212.34, 0.25, 146225
ATT, 146242, 0.00, 1.27, 0.00, -1.60, 188.67, 188.67, 0.02, 0.00
RCIN, 146243, 1501, 1499, 1102, 1897, 1898, 1402, 1898, 1497, 0, 0, 0, 0, 0, 0
GPS, 3, 120246200, 1902, 10, 1.41, 60.1915341, 24.7366052, 0.00, 10.58, 0.07, 212.34, 0.24, 146262
CTUN, 146313, 0, 0, 0, 0, 0, 0.22, 0.00, 0.00, 0, 3
ATT, 146341, 0.00, 1.25, 0.00, -1.50, 188.68, 188.68, 0.25, 0.00
RCIN, 146342, 1501, 1498, 1102, 1897, 1898, 1402, 1898, 1497, 0, 0, 0, 0, 0, 0
CTUN, 146413, 0, 0, 0, 0, 0.01, 0.06, 0.00, 0.00, 0, 4
ATT, 146443, 0.00, 1.20, 0.00, -1.37, 188.68, 188.68, 0.25, 0.00
RCIN, 146443, 1501, 1499, 1102, 1897, 1898, 1402, 1898, 1498, 0, 0, 0, 0, 0, 0
GPS, 3, 120248000, 1902, 10, 1.41, 60.191534, 24.7366051, 0.02, 10.54, 0.07, 212.34, 0.28, 146462
CTUN, 146513, 0, 0, 0, 0, 0.02, 0.08, 0.00, 0.00, 0, 4
ATT, 146542, 0.00, 1.17, 0.00, -1.33, 188.68, 188.68, 0.02, 0.00
RCIN, 146542, 1501, 1499, 1102, 1897, 1898, 1402, 1898, 1498, 0, 0, 0, 0, 0, 0
CTUN, 146613, 0, 0, 0, 0, 0.03, 0.19, 0.00, 0.00, 0, 4
DU32, 7, 675289
CURR, 146614, 0, 0, 1530, 0, 4772, 0
ATT, 146643, 0.00, 1.16, 0.00, -1.33, 188.68, 188.68, 0.02, 0.00
RCIN, 146643, 1501, 1499, 1102, 1897, 1898, 1402, 1898, 1498, 0, 0, 0, 0, 0, 0
GPS, 3, 120248200, 1902, 10, 1.41, 60.191534, 24.7366052, 0.04, 10.53, 0.09, 212.34, 0.35, 146662
RAD, 146693, 100, 86, 100, 81, 49, 5, 21
RAD, 146693, 100, 86, 100, 81, 49, 5, 21
CTUN, 146713, 0, 0, 0, 0, 0.04, 0.07, 0.00, 0.00, 0, 4
ATT, 146742, 0.00, 1.16, 0.00, -1.34, 188.69, 188.69, 0.01, 0.00
RCIN, 146742, 1501, 1499, 1102, 1897, 1898, 1402, 1898, 1498, 0, 0, 0, 0, 0, 0
CTUN, 146813, 0, 0, 0, 0, 0.05, 0.03, 0.00, 0.00, 0, 4
ATT, 146843, 0.00, 1.16, 0.00, -1.35, 188.69, 188.69, 0.01, 0.00
RCIN, 146843, 1501, 1499, 1102, 1897, 1898, 1402, 1898, 1498, 0, 0, 0, 0, 0, 0
GPS, 3, 120248400, 1902, 10, 1.41, 60.1915338, 24.7366052, 0.05, 10.51, 0.09, 212.34, 0.3, 146862
CTUN, 146915, 0, 0, 0, 0, 0.05, 0.20, 0.00, 0.00, 0, 4
ATT, 146944, 0.00, 1.17, 0.00, -1.36, 188.69, 188.69, 0.01, 0.00
RCIN, 146944, 1501, 1498, 1102, 1897, 1898, 1402, 1898, 1497, 0, 0, 0, 0, 0, 0
CTUN, 147014, 0, 0, 0, 0, 0.07, 0.14, 0.00, 0.00, 0, 4
ATT, 147044, 0.00, 1.18, 0.00, -1.36, 188.69, 188.69, 0.01, 0.00
RCIN, 147044, 1501, 1499, 1102, 1897, 1898, 1402, 1898, 1498, 0, 0, 0, 0, 0, 0
GPS, 3, 120248600, 1902, 10, 1.41, 60.1915339, 24.7366053, 0.07, 10.51, 0.06, 212.34, 0.25, 147063
CTUN, 147113, 0, 0, 0, 0, 0.08, 0.00, 0.00, 0.00, 0, 4
ATT, 147142, 0.00, 1.19, 0.00, -1.34, 188.69, 188.69, 0.06, 0.00
RCIN, 147142, 1501, 1499, 1102, 1897, 1898, 1402, 1898, 1498, 0, 0, 0, 0, 0, 0
CTUN, 147214, 0, 0, 0, 0, 0.08, 0.07, 0.00, 0.00, 0, 4
ATT, 147244, 0.00, 1.20, 0.00, -1.30, 188.69, 188.69, 0.06, 0.00
RCIN, 147244, 1501, 1499, 1102, 1897, 1898, 1402, 1898, 1498, 0, 0, 0, 0, 0, 0
GPS, 3, 120248800, 1902, 10, 1.41, 60.1915338, 24.7366053, 0.08, 10.49, 0.07, 212.34, 0.14, 147263
CTUN, 147313, 0, 0, 0, 0, 0.08, 0.22, 0.00, 0.00, 0, 4
ATT, 147342, 0.00, 1.20, 0.00, -1.31, 188.70, 188.70, 0.04, 0.00
RCIN, 147342, 1501, 1499, 1102, 1897, 1898, 1402, 1898, 1497, 0, 0, 0, 0, 0, 0
CTUN, 147413, 0, 0, 0, 0, 0.09, 0.15, 0.00, 0.00, 0, 5
ATT, 147444, 0.00, 1.20, 0.00, -1.34, 188.70, 188.70, 0.04, 0.00
RCIN, 147445, 1501, 1499, 1102, 1897, 1898, 1402, 1898, 1498, 0, 0, 0, 0, 0, 0
GPS, 3, 120249000, 1902, 10, 1.41, 60.1915338, 24.7366054, 0.10, 10.53, 0.04, 212.34, 0.03, 147464
CTUN, 147514, 0, 0, 0, 0, 0.1, 0.13, 0.00, 0.00, 0, 5
ATT, 147543, 0.00, 1.20, 0.00, -1.35, 188.70, 188.70, 0.00, 0.00
RCIN, 147543, 1501, 1499, 1102, 1897, 1898, 1402, 1898, 1498, 0, 0, 0, 0, 0, 0
CTUN, 147613, 0, 0, 0, 0, 0.11, 0.24, 0.00, 0.00, 0, 5
DU32, 7, 675289
CURR, 147614, 0, 0, 1529, 0, 4772, 0
ATT, 147643, 0.00, 1.20, 0.00, -1.34, 188.70, 188.70, 0.00, 0.00
RCIN, 147644, 1501, 1499, 1102, 1895, 1898, 1402, 1898, 1498, 0, 0, 0, 0, 0, 0
GPS, 3, 120249200, 1902, 10, 1.41, 60.1915336, 24.7366055, 0.12, 10.50, 0.12, 212.34, 0.29, 147662
CTUN, 147713, 0, 0, 0, 0, 0.12, 0.14, 0.00, 0.00, 0, 5
ATT, 147743, 0.00, 1.19, 0.00, -1.36, 188.70, 188.70, 0.05, 0.00
RCIN, 147743, 1501, 1499, 1102, 1763, 1898, 1402, 1898, 1497, 0, 0, 0, 0, 0, 0
RAD, 147753, 100, 94, 91, 82, 48, 5, 22
RAD, 147754, 100, 94, 91, 82, 48, 5, 22
CTUN, 147813, 0, 0, 0, 0, 0.13, 0.24, 0.00, 0.00, 0, 5
ATT, 147843, 0.00, 1.17, 0.00, -1.38, 188.70, 188.70, 0.05, 0.00
RCIN, 147843, 1501, 1499, 1104, 1640, 1898, 1402, 1898, 1497, 0, 0, 0, 0, 0, 0
GPS, 3, 120249400, 1902, 10, 1.41, 60.1915336, 24.7366058, 0.14, 10.50, 0.02, 212.34, 0.25, 147862
CTUN, 147913, 0, 0, 0, 0, 0.14, 0.29, 0.00, 0.00, 0, 5
ATT, 147942, 0.00, 1.18, 0.00, -1.37, 188.71, 188.71, 0.05, 0.00
RCIN, 147942, 1501, 1498, 1104, 1559, 1898, 1402, 1898, 1498, 0, 0, 0, 0, 0, 0
CTUN, 148014, 0, 0, 0, 0, 0.16, 0.05, 0.00, 0.00, 0, 6
ATT, 148043, 0.00, 1.19, 0.00, -1.34, 188.71, 188.71, 0.05, 0.00
RCIN, 148044, 1501, 1499, 1104, 1499, 1898, 1402, 1898, 1498, 0, 0, 0, 0, 0, 0
GPS, 3, 120249600, 1902, 10, 1.41, 60.1915336, 24.7366061, 0.16, 10.51, 0.09, 212.34, -0.01, 148062
CTUN, 148113, 0, 0, 0, 0, 0.16, 0.22, 0.00, 0.00, 0, 6
ATT, 148142, 0.00, 1.19, 0.00, -1.32, 188.71, 188.71, 0.04, 0.00
RCIN, 148142, 1501, 1498, 1107, 1489, 1898, 1402, 1898, 1497, 0, 0, 0, 0, 0, 0
CTUN, 148213, 0, 0, 0, 0, 0.17, 0.27, 0.00, 0.00, 0, 6
ATT, 148243, 0.00, 1.17, 0.00, -1.30, 188.71, 188.71, 0.04, 0.00
RCIN, 148243, 1501, 1499, 1107, 1499, 1898, 1402, 1898, 1498, 0, 0, 0, 0, 0, 0
GPS, 3, 120249800, 1902, 10, 1.41, 60.1915337, 24.7366064, 0.18, 10.52, 0.04, 212.34, 0.07, 148262
CTUN, 148313, 0, 0, 0, 0, 0.18, 0.13, 0.00, 0.00, 0, 6
ATT, 148342, 0.00, 1.18, 0.00, -1.32, 188.72, 188.72, 0.06, 0.00
RCIN, 148343, 1501, 1499, 1107, 1499, 1898, 1402, 1898, 1497, 0, 0, 0, 0, 0, 0
CTUN, 148413, 0, 0, 0, 0, 0.19, 0.23, 0.00, 0.00, 0, 6
ATT, 148443, 0.00, 1.20, 0.00, -1.35, 188.72, 188.72, 0.06, 0.00
RCIN, 148443, 1501, 1499, 1107, 1499, 1898, 1402, 1898, 1498, 0, 0, 0, 0, 0, 0
GPS, 3, 120250000, 1902, 10, 1.41, 60.1915336, 24.7366067, 0.19, 10.50, 0.03, 212.34, 0.2, 148462
CTUN, 148513, 0, 0, 0, 0, 0.2, 0.17, 0.00, 0.00, 0, 6
ATT, 148542, 0.00, 1.20, 0.00, -1.36, 188.72, 188.72, 0.00, 0.00
RCIN, 148542, 1501, 1499, 1107, 1499, 1898, 1402, 1898, 1497, 0, 0, 0, 0, 0, 0
PM, 16, 1000, 1818555, 12, 1, 0, 4
CTUN, 148613, 0, 0, 0, 0, 0.2, 0.26, 0.00, 0.00, 0, 6
DU32, 7, 675289
CURR, 148614, 0, 0, 1522, 0, 4772, 0
ATT, 148643, 0.00, 1.21, 0.00, -1.36, 188.72, 188.72, 0.00, 0.00
RCIN, 148643, 1501, 1499, 1107, 1499, 1898, 1402, 1898, 1498, 0, 0, 0, 0, 0, 0
GPS, 3, 120250200, 1902, 10, 1.41, 60.1915335, 24.7366069, 0.21, 10.46, 0.02, 212.34, 0.2, 148662
RAD, 148674, 100, 94, 94, 82, 43, 5, 22
RAD, 148674, 100, 94, 94, 82, 43, 5, 22
CTUN, 148713, 0, 0, 0, 0, 0.21, 0.20, 0.00, 0.00, 0, 6
ATT, 148742, 0.00, 1.22, 0.00, -1.36, 188.72, 188.72, 0.01, 0.00
RCIN, 148742, 1501, 1499, 1107, 1499, 1898, 1402, 1898, 1497, 0, 0, 0, 0, 0, 0
CTUN, 148813, 0, 0, 0, 0, 0.22, 0.31, 0.00, 0.00, 0, 6
ATT, 148843, 0.00, 1.23, 0.00, -1.36, 188.72, 188.72, 0.01, 0.00
RCIN, 148843, 1501, 1499, 1107, 1499, 1898, 1402, 1898, 1498, 0, 0, 0, 0, 0, 0
GPS, 3, 120250400, 1902, 10, 1.41, 60.1915334, 24.7366072, 0.23, 10.45, 0.13, 212.34, 0.19, 148862
CTUN, 148913, 0, 0, 0, 0, 0.23, 0.28, 0.00, 0.00, 0, 7
ATT, 148942, 0.00, 1.21, 0.00, -1.37, 188.73, 188.73, 0.06, 0.00
RCIN, 148942, 1501, 1499, 1109, 1499, 1898, 1402, 1898, 1497, 0, 0, 0, 0, 0, 0
CTUN, 149013, 0, 0, 0, 0, 0.24, 0.15, 0.00, 0.00, 0, 7
ATT, 149043, 0.00, 1.18, 0.00, -1.39, 188.73, 188.73, 0.06, 0.00
RCIN, 149044, 1501, 1499, 1109, 1499, 1898, 1402, 1898, 1498, 0, 0, 0, 0, 0, 0
GPS, 3, 120250600, 1902, 10, 1.41, 60.1915333, 24.7366075, 0.24, 10.45, 0.17, 212.34, 0.29, 149062
CTUN, 149113, 0, 0, 0, 0, 0.24, 0.32, 0.00, 0.00, 0, 7
ATT, 149142, 0.00, 1.20, 0.00, -1.41, 188.73, 188.73, 0.07, 0.00
RCIN, 149142, 1501, 1499, 1108, 1499, 1898, 1402, 1898, 1498, 0, 0, 0, 0, 0, 0
CTUN, 149213, 0, 0, 0, 0, 0.26, 0.16, 0.00, 0.00, 0, 7
ATT, 149243, 0.00, 1.24, 0.00, -1.43, 188.73, 188.73, 0.07, 0.00
RCIN, 149243, 1501, 1499, 1109, 1499, 1898, 1402, 1898, 1498, 0, 0, 0, 0, 0, 0
GPS, 3, 120250800, 1902, 10, 1.41, 60.1915332, 24.7366076, 0.26, 10.45, 0.24, 212.34, 0.23, 149262
CTUN, 149313, 0, 0, 0, 0, 0.26, 0.24, 0.00, 0.00, 0, 7
ATT, 149342, 0.00, 1.26, 0.00, -1.46, 188.73, 188.73, 0.03, 0.00
RCIN, 149342, 1501, 1499, 1109, 1499, 1898, 1402, 1898, 1497, 0, 0, 0, 0, 0, 0
CTUN, 149413, 0, 0, 0, 0, 0.26, 0.18, 0.00, 0.00, 0, 7
ATT, 149443, 0.00, 1.26, 0.00, -1.48, 188.73, 188.73, 0.03, 0.00
RCIN, 149443, 1501, 1499, 1109, 1499, 1898, 1402, 1898, 1498, 0, 0, 0, 0, 0, 0
GPS, 3, 120251000, 1902, 10, 1.41, 60.191533, 24.7366076, 0.27, 10.46, 0.19, 212.34, 0.35, 149462
CTUN, 149513, 0, 0, 0, 0, 0.27, 0.20, 0.00, 0.00, 0, 7
ATT, 149542, 0.00, 1.27, 0.00, -1.47, 188.73, 188.73, 0.03, 0.00
RCIN, 149543, 1501, 1499, 1109, 1499, 1898, 1402, 1898, 1498, 0, 0, 0, 0, 0, 0
CTUN, 149613, 0, 0, 0, 0, 0.27, 0.25, 0.00, 0.00, 0, 7
DU32, 7, 675289
CURR, 149614, 0, 0, 1530, 0, 4752, 0
ATT, 149643, 0.00, 1.29, 0.00, -1.45, 188.73, 188.73, 0.03, 0.00
RCIN, 149643, 1501, 1499, 1112, 1499, 1898, 1402, 1898, 1498, 0, 0, 0, 0, 0, 0
GPS, 3, 120251200, 1902, 10, 1.41, 60.1915328, 24.7366079, 0.27, 10.39, 0.17, 212.34, 0.29, 149662
CTUN, 149713, 0, 0, 0, 0, 0.28, 0.28, 0.00, 0.00, 0, 7
EV, 15
ATT, 149743, 0.00, 1.25, 0.00, -1.44, 188.73, 188.73, 0.10, 0.00
RCIN, 149744, 1501, 1499, 1137, 1499, 1898, 1402, 1898, 1498, 0, 0, 0, 0, 0, 0
RAD, 149794, 100, 94, 90, 84, 42, 5, 22
RAD, 149794, 100, 94, 90, 84, 42, 5, 22
CTUN, 149815, 63, 0, 61, 0, 0.29, 0.09, 0.00, 0.00, 0, 7
ATT, 149845, 0.00, 1.20, 0.00, -1.42, 188.73, 188.76, 0.10, 0.00
RCIN, 149846, 1501, 1499, 1137, 1499, 1898, 1402, 1898, 1497, 0, 0, 0, 0, 0, 0
GPS, 3, 120251400, 1902, 10, 1.41, 60.1915327, 24.7366086, 0.28, 10.40, 0.24, 212.34, 0.14, 149864
CTUN, 149914, 63, 0, 61, 0, 0.28, 0.17, 0.00, 0.00, 0, 7
ATT, 149945, 0.00, 1.17, 0.00, -1.41, 188.73, 188.74, 0.03, 0.00
RCIN, 149945, 1501, 1499, 1137, 1499, 1898, 1402, 1898, 1498, 0, 0, 0, 0, 0, 0
CTUN, 150014, 63, 0, 61, 0, 0.28, 0.20, 0.00, 0.00, 0, 6
ATT, 150054, 0.00, 1.16, 0.00, -1.35, 188.73, 188.69, 0.03, 0.05
RCIN, 150054, 1501, 1499, 1137, 1499, 1898, 1402, 1898, 1498, 0, 0, 0, 0, 0, 0
GPS, 3, 120251600, 1902, 10, 1.41, 60.1915326, 24.7366091, 0.28, 10.41, 0.12, 212.34, 0.22, 150064
CTUN, 150114, 63, 0, 61, 0, 0.28, 0.31, 0.00, 0.00, 0, 6
ATT, 150153, 0.00, 1.20, 0.00, -1.23, 188.73, 188.69, 0.10, 0.04
RCIN, 150154, 1501, 1499, 1137, 1499, 1898, 1402, 1898, 1498, 0, 0, 0, 0, 0, 0
CTUN, 150214, 63, 0, 61, 0, 0.29, 0.22, 0.00, 0.00, 0, 7
ATT, 150253, 0.00, 1.25, 0.00, -1.14, 188.73, 188.69, 0.10, 0.06
RCIN, 150253, 1501, 1499, 1137, 1499, 1898, 1402, 1898, 1498, 0, 0, 0, 0, 0, 0
GPS, 3, 120251800, 1902, 10, 1.41, 60.1915326, 24.7366092, 0.30, 10.39, 0.08, 212.34, 0.21, 150263
CTUN, 150315, 63, 0, 61, 0, 0.29, 0.27, 0.00, 0.00, 0, 3
ATT, 150353, 0.00, 1.28, 0.00, -0.96, 188.73, 188.67, 0.08, 0.05
RCIN, 150353, 1501, 1499, 1137, 1499, 1898, 1402, 1898, 1498, 0, 0, 0, 0, 0, 0
CTUN, 150415, 63, 0, 61, 0, 0.3, 0.13, 0.00, 0.00, 0, 3
ATT, 150454, 0.00, 1.28, 0.00, -0.79, 188.73, 188.68, 0.08, 0.05
RCIN, 150454, 1501, 1499, 1137, 1499, 1898, 1402, 1898, 1498, 0, 0, 0, 0, 0, 0
GPS, 3, 120252000, 1902, 10, 1.41, 60.1915328, 24.7366097, 0.30, 10.39, 0.17, 212.34, 0.24, 150464
CTUN, 150514, 63, 0, 61, 0, 0.29, 0.16, 0.00, 0.00, 0, 2
ATT, 150553, 0.00, 1.20, 0.00, -0.72, 188.73, 188.66, 0.14, 0.05
RCIN, 150553, 1501, 1499, 1137, 1499, 1898, 1402, 1898, 1498, 0, 0, 0, 0, 0, 0
CTUN, 150614, 63, 0, 61, 0, 0.29, 0.11, 0.00, 0.00, 0, 2
DU32, 7, 151033
CURR, 150615, 61, 549, 1517, 978, 4772, 2.052582
ATT, 150653, 0.00, 1.09, 0.00, -0.69, 188.73, 188.65, 0.14, 0.03
RCIN, 150653, 1501, 1499, 1137, 1499, 1898, 1402, 1898, 1498, 0, 0, 0, 0, 0, 0
RAD, 150673, 93, 94, 100, 24, 42, 7, 24
RAD, 150674, 93, 94, 100, 24, 42, 7, 24
GPS, 3, 120252200, 1902, 10, 1.41, 60.1915328, 24.7366104, 0.29, 10.40, 0.18, 212.34, 0.32, 150683
CTUN, 150715, 63, 0, 61, 0, 0.29, -0.05, 0.00, 0.00, 0, 5
ATT, 150753, 0.00, 1.06, 0.00, -0.69, 188.73, 188.64, 0.03, 0.03
RCIN, 150753, 1501, 1499, 1137, 1499, 1898, 1402, 1898, 1498, 0, 0, 0, 0, 0, 0
CTUN, 150815, 63, 0, 61, 0, 0.27, 0.00, 0.00, 0.00, 0, 15
ATT, 150854, 0.00, 1.04, 0.00, -0.60, 188.73, 188.66, 0.03, 0.03
RCIN, 150855, 1501, 1499, 1137, 1499, 1898, 1402, 1898, 1498, 0, 0, 0, 0, 0, 0
GPS, 3, 120252400, 1902, 10, 1.41, 60.1915328, 24.7366108, 0.28, 10.37, 0.04, 212.34, 0.33, 150864
CTUN, 150914, 63, 0, 61, 0, 0.28, 0.03, 0.00, 0.00, 0, 21
ATT, 150953, 0.00, 1.04, 0.00, -0.56, 188.73, 188.64, 0.11, 0.05
RCIN, 150954, 1501, 1499, 1155, 1499, 1898, 1402, 1898, 1497, 0, 0, 0, 0, 0, 0
CTUN, 151015, 87, 0, 75, 0, 0.29, -0.03, 0.00, 0.00, 0, 32
ATT, 151053, 0.00, 1.03, 0.00, -0.44, 188.73, 188.64, 0.11, 0.03
RCIN, 151054, 1501, 1499, 1157, 1499, 1898, 1402, 1898, 1498, 0, 0, 0, 0, 0, 0
GPS, 3, 120252600, 1902, 10, 1.41, 60.1915327, 24.7366111, 0.30, 10.35, 0.22, 212.34, 0.28, 151064
CTUN, 151114, 89, 0, 76, 0, 0.31, 0.07, 0.00, 0.00, 0, 35
ATT, 151153, 0.00, 1.14, 0.00, -0.59, 188.73, 188.63, 0.32, 0.05
RCIN, 151153, 1501, 1499, 1157, 1499, 1898, 1402, 1898, 1498, 0, 0, 0, 0, 0, 0
CTUN, 151214, 87, 0, 75, 0, 0.33, 0.15, 0.00, 0.00, 0, 29
ATT, 151253, 0.00, 1.22, 0.00, -0.61, 188.73, 188.64, 0.32, 0.04
RCIN, 151254, 1499, 1499, 1168, 1499, 1898, 1402, 1898, 1498, 0, 0, 0, 0, 0, 0
GPS, 3, 120252800, 1902, 10, 1.41, 60.1915325, 24.7366114, 0.34, 10.35, 0.32, 212.34, 0.38, 151263
CTUN, 151314, 101, 0, 83, 0, 0.35, 0.14, 0.00, 0.00, 0, 27
ATT, 151353, 0.00, 1.20, 0.00, -0.73, 188.73, 188.62, 0.16, 0.10
RCIN, 151354, 1499, 1499, 1168, 1499, 1898, 1402, 1898, 1498, 0, 0, 0, 0, 0, 0
CTUN, 151414, 115, 0, 90, 0, 0.37, 0.06, 0.00, 0.00, 0, 29
ATT, 151454, 0.00, 1.17, 0.00, -0.79, 188.73, 188.60, 0.16, 0.08
RCIN, 151454, 1500, 1499, 1180, 1499, 1898, 1402, 1898, 1498, 0, 0, 0, 0, 0, 0
GPS, 3, 120253000, 1902, 10, 1.41, 60.1915324, 24.7366117, 0.37, 10.35, 0.17, 212.34, 0.38, 151464
CTUN, 151514, 115, 0, 91, 0, 0.38, 0.00, 0.00, 0.00, 0, 22
ATT, 151553, 0.00, 1.20, 0.00, -0.71, 188.73, 188.61, 0.07, 0.06
RCIN, 151553, 1501, 1499, 1179, 1499, 1898, 1402, 1898, 1498, 0, 0, 0, 0, 0, 0
CTUN, 151614, 114, 0, 90, 0, 0.38, 0.17, 0.00, 0.00, 0, 21
DU32, 7, 151033
CURR, 151615, 90, 1312, 1511, 1290, 4752, 5.286258
ATT, 151653, 0.00, 1.19, 0.00, -0.68, 188.73, 188.58, 0.07, 0.09
RCIN, 151654, 1499, 1499, 1179, 1499, 1898, 1402, 1898, 1497, 0, 0, 0, 0, 0, 0
GPS, 3, 120253200, 1902, 10, 1.41, 60.1915323, 24.736612, 0.39, 10.32, 0.14, 212.34, 0.31, 151664
CTUN, 151714, 125, 0, 96, 0, 0.4, 0.14, 0.00, 0.00, 0, 26
ATT, 151753, 0.00, 1.15, 0.00, -0.62, 188.73, 188.57, 0.03, 0.09
RCIN, 151754, 1499, 1499, 1197, 1499, 1898, 1402, 1898, 1498, 0, 0, 0, 0, 0, 0
RAD, 151793, 95, 94, 92, 26, 42, 7, 24
RAD, 151794, 95, 94, 92, 26, 42, 7, 24
CTUN, 151814, 144, 0, 103, 0, 0.41, 0.27, 0.00, 0.00, 0, 17
ATT, 151854, 0.00, 1.11, 0.00, -0.56, 188.73, 188.56, 0.03, 0.08
RCIN, 151854, 1501, 1499, 1205, 1499, 1898, 1402, 1898, 1498, 0, 0, 0, 0, 0, 0
GPS, 3, 120253400, 1902, 10, 1.41, 60.1915323, 24.7366124, 0.42, 10.30, 0.13, 212.34, 0.35, 151864
CTUN, 151914, 145, 0, 108, 0, 0.42, 0.38, 0.00, 0.00, 0, 28
ATT, 151953, 0.00, 1.07, 0.00, -0.57, 188.73, 188.55, 0.05, 0.05
RCIN, 151953, 1501, 1499, 1212, 1499, 1898, 1402, 1898, 1498, 0, 0, 0, 0, 0, 0
CTUN, 152014, 154, 0, 113, 0, 0.46, 0.12, 0.00, 0.00, 0, 51
ATT, 152053, 0.00, 1.02, 0.00, -0.50, 188.73, 188.56, 0.05, 0.07
RCIN, 152054, 1502, 1499, 1212, 1499, 1898, 1402, 1898, 1498, 0, 0, 0, 0, 0, 0
GPS, 3, 120253600, 1902, 10, 1.41, 60.1915322, 24.736613, 0.49, 10.31, 0.26, 212.34, 0.35, 152064
CTUN, 152116, 154, 0, 113, 0, 0.51, 0.28, 0.00, 0.00, 0, 73
ATT, 152156, 0.00, 1.02, 0.00, -0.53, 188.73, 188.56, 0.11, 0.07
RCIN, 152156, 1502, 1499, 1212, 1499, 1898, 1402, 1898, 1498, 0, 0, 0, 0, 0, 0
CTUN, 152216, 154, 0, 113, 0, 0.59, 0.37, 0.00, 0.00, 0, 81
ATT, 152256, 0.00, 1.05, 0.00, -0.58, 188.73, 188.53, 0.11, 0.08
RCIN, 152256, 1502, 1499, 1212, 1499, 1898, 1402, 1898, 1498, 0, 0, 0, 0, 0, 0
GPS, 3, 120253800, 1902, 10, 1.41, 60.1915321, 24.7366134, 0.63, 10.30, 0.11, 212.34, 0.26, 152265
CTUN, 152316, 154, 0, 113, 0, 0.65, 0.27, 0.00, 0.00, 0, 56
ATT, 152356, 0.00, 0.96, 0.00, -0.53, 188.73, 188.55, 0.11, 0.09
RCIN, 152356, 1501, 1499, 1212, 1499, 1898, 1402, 1898, 1498, 0, 0, 0, 0, 0, 0
CTUN, 152416, 154, 0, 113, 0, 0.7, 0.35, 0.00, 0.00, 0, 81
ATT, 152456, 0.00, 0.93, 0.00, -0.45, 188.73, 188.53, 0.11, 0.11
RCIN, 152456, 1501, 1499, 1212, 1499, 1898, 1402, 1898, 1497, 0, 0, 0, 0, 0, 0
GPS, 3, 120254000, 1902, 10, 1.41, 60.191532, 24.7366137, 0.73, 10.29, 0.14, 212.34, 0.14, 152466
CTUN, 152516, 154, 0, 113, 0, 0.75, 0.23, 0.00, 0.00, 0, 62
ATT, 152555, 0.00, 0.89, 0.00, -0.29, 188.73, 188.54, 0.04, 0.09
RCIN, 152556, 1502, 1499, 1212, 1499, 1898, 1402, 1898, 1498, 0, 0, 0, 0, 0, 0
CTUN, 152616, 154, 0, 113, 0, 0.79, 0.26, 0.00, 0.00, 0, 59
DU32, 7, 151033
CURR, 152617, 113, 2410, 1512, 1584, 4772, 9.437738
ATT, 152656, 0.00, 0.87, 0.00, -0.32, 188.73, 188.52, 0.04, 0.08
RCIN, 152656, 1502, 1499, 1212, 1499, 1898, 1402, 1898, 1498, 0, 0, 0, 0, 0, 0
GPS, 3, 120254200, 1902, 10, 1.41, 60.1915318, 24.7366139, 0.82, 10.25, 0.09, 212.34, 0.35, 152666
CTUN, 152717, 154, 0, 113, 0, 0.83, 0.15, 0.00, 0.00, 0, 59
RAD, 152727, 98, 94, 100, 30, 42, 7, 24
RAD, 152727, 98, 94, 100, 30, 42, 7, 24
ATT, 152756, 0.00, 0.92, 0.00, -0.21, 188.73, 188.51, 0.11, 0.10
RCIN, 152756, 1500, 1499, 1212, 1499, 1898, 1402, 1898, 1497, 0, 0, 0, 0, 0, 0
CTUN, 152816, 154, 0, 113, 0, 0.86, 0.24, 0.00, 0.00, 0, 68
ATT, 152855, 0.00, 0.93, 0.00, -0.15, 188.73, 188.52, 0.11, 0.11
RCIN, 152856, 1499, 1499, 1212, 1499, 1898, 1402, 1898, 1498, 0, 0, 0, 0, 0, 0
GPS, 3, 120254400, 1902, 10, 1.41, 60.1915317, 24.7366141, 0.88, 10.23, 0.21, 212.34, 0.28, 152866
CTUN, 152917, 154, 0, 113, 0, 0.89, 0.33, 0.00, 0.00, 0, 59
ATT, 152955, 0.00, 0.86, 0.00, -0.20, 188.73, 188.51, 0.14, 0.09
RCIN, 152956, 1500, 1499, 1212, 1499, 1898, 1402, 1898, 1497, 0, 0, 0, 0, 0, 0
CTUN, 153017, 154, 0, 113, 0, 0.93, 0.27, 0.00, 0.00, 0, 63
ATT, 153055, 0.00, 0.77, 0.00, -0.15, 188.73, 188.48, 0.14, 0.10
RCIN, 153056, 1500, 1499, 1226, 1499, 1898, 1402, 1898, 1498, 0, 0, 0, 0, 0, 0
GPS, 3, 120254600, 1902, 10, 1.41, 60.1915316, 24.7366143, 0.95, 10.19, 0.09, 212.34, 0.26, 153065
CTUN, 153117, 173, 0, 124, 0, 0.96, 0.35, 0.00, 0.00, 0, 65
ATT, 153155, 0.00, 0.76, 0.00, -0.17, 188.73, 188.46, 0.10, 0.08
RCIN, 153156, 1499, 1499, 1228, 1499, 1898, 1402, 1898, 1498, 0, 0, 0, 0, 0, 0
CTUN, 153217, 173, 0, 124, 0, 1, 0.45, 0.00, 0.00, 0, 77
ATT, 153255, 0.00, 0.73, 0.00, -0.02, 188.73, 188.43, 0.10, 0.12
RCIN, 153255, 1500, 1499, 1237, 1499, 1898, 1402, 1898, 1498, 0, 0, 0, 0, 0, 0
GPS, 3, 120254800, 1902, 10, 1.41, 60.1915314, 24.7366143, 1.03, 10.12, 0.26, 212.34, 0.45, 153265
CTUN, 153316, 187, 0, 132, 0, 1.05, 0.36, 0.00, 0.00, 0, 74
ATT, 153355, 0.00, 0.69, 0.00, -0.05, 188.73, 188.43, 0.10, 0.09
RCIN, 153355, 1500, 1499, 1245, 1499, 1898, 1402, 1898, 1498, 0, 0, 0, 0, 0, 0
CTUN, 153416, 201, 0, 140, 0, 1.08, 0.43, 0.00, 0.00, 0, 72
ATT, 153455, 0.00, 0.69, 0.00, -0.12, 188.73, 188.42, 0.10, 0.09
RCIN, 153456, 1500, 1499, 1251, 1499, 1898, 1402, 1898, 1498, 0, 0, 0, 0, 0, 0
GPS, 3, 120255000, 1902, 10, 1.41, 60.1915312, 24.7366146, 1.11, 10.09, 0.16, 212.34, 0.34, 153465
CTUN, 153516, 217, 0, 149, 0, 1.12, 0.30, 0.00, 0.00, 0, 65
ATT, 153555, 0.00, 0.64, 0.00, -0.08, 188.73, 188.39, 0.06, 0.10
RCIN, 153556, 1499, 1499, 1265, 1500, 1898, 1402, 1898, 1498, 0, 0, 0, 0, 0, 0
CTUN, 153616, 228, 0, 155, 0, 1.14, 0.33, 0.00, 0.00, 0, 63
DU32, 7, 151033
CURR, 153617, 155, 3681, 1512, 1870, 4752, 14.09467
EV, 28
ATT, 153657, 0.00, 0.65, 0.00, -0.12, 188.73, 188.39, 0.06, 0.07
RCIN, 153657, 1500, 1499, 1276, 1499, 1898, 1402, 1898, 1497, 0, 0, 0, 0, 0, 0
GPS, 3, 120255200, 1902, 10, 1.41, 60.1915312, 24.736615, 1.16, 10.09, 0.08, 212.34, 0.33, 153666
CTUN, 153717, 233, 0, 158, 0, 1.17, 0.42, 0.00, 0.00, 0, 69
ATT, 153755, 0.00, 0.52, 0.00, 0.06, 188.73, 188.35, 0.05, 0.11
RCIN, 153755, 1500, 1499, 1285, 1499, 1898, 1402, 1898, 1498, 0, 0, 0, 0, 0, 0
CTUN, 153816, 242, 0, 163, 0, 1.19, 0.46, 0.00, 0.00, 0, 69
ATT, 153855, 0.00, 0.44, 0.00, 0.19, 188.73, 188.38, 0.05, 0.12
RCIN, 153856, 1500, 1499, 1285, 1499, 1898, 1402, 1898, 1498, 0, 0, 0, 0, 0, 0
GPS, 3, 120255400, 1902, 10, 1.41, 60.1915312, 24.7366154, 1.21, 10.08, 0.13, 212.34, 0.42, 153866
CTUN, 153916, 259, 0, 173, 0, 1.22, 0.51, 0.00, 0.00, 0, 64
ATT, 153955, 0.00, 0.35, 0.00, 0.22, 188.73, 188.34, 0.04, 0.11
RCIN, 153955, 1500, 1499, 1312, 1499, 1898, 1402, 1898, 1497, 0, 0, 0, 0, 0, 0
CTUN, 154016, 293, 0, 192, 0, 1.25, 0.70, 0.00, 0.00, 0, 66
ATT, 154056, 0.00, 0.29, 0.00, 0.30, 188.73, 188.36, 0.04, 0.10
RCIN, 154056, 1500, 1499, 1330, 1499, 1898, 1402, 1898, 1498, 0, 0, 0, 0, 0, 0
GPS, 3, 120255600, 1902, 10, 1.41, 60.1915312, 24.7366158, 1.27, 10.07, 0.01, 212.34, 0.21, 154066
RAD, 154096, 101, 0, 78, 27, 0, 7, 24
RAD, 154096, 101, 0, 78, 27, 0, 7, 24
CTUN, 154116, 334, 0, 212, 0, 1.29, 0.95, 0.00, 0.00, 0, 69
ATT, 154155, 0.00, 0.10, 0.00, 0.50, 188.73, 188.33, 0.07, 0.16
RCIN, 154156, 1500, 1499, 1360, 1499, 1898, 1402, 1898, 1498, 0, 0, 0, 0, 0, 0
CTUN, 154217, 355, 0, 223, 0, 1.34, 0.70, 0.00, 0.00, 0, 60
ATT, 154255, 0.00, -0.14, 0.00, 0.53, 188.73, 188.33, 0.07, 0.12
RCIN, 154255, 1499, 1499, 1378, 1499, 1898, 1402, 1898, 1498, 0, 0, 0, 0, 0, 0
GPS, 3, 120255800, 1902, 10, 1.41, 60.1915311, 24.736616, 1.35, 10.06, 0.18, 212.34, 0.29, 154265
CTUN, 154316, 355, 0, 227, 0, 1.37, 0.70, 0.00, 0.00, 0, 66
ATT, 154355, 0.00, -0.60, 0.00, 0.48, 188.73, 188.20, 0.08, 0.15
RCIN, 154355, 1500, 1499, 1400, 1499, 1898, 1402, 1898, 1498, 0, 0, 0, 0, 0, 0
CTUN, 154416, 383, 0, 243, 0, 1.4, 0.33, 0.00, 0.00, 0, 63
ATT, 154456, 0.00, -1.23, 0.00, 0.65, 188.73, 188.09, 0.08, 0.11
RCIN, 154456, 1500, 1499, 1457, 1499, 1898, 1402, 1898, 1498, 0, 0, 0, 0, 0, 0
GPS, 3, 120256000, 1902, 10, 1.41, 60.191531, 24.7366162, 1.40, 10.05, 0.14, 212.34, 0.29, 154466
CTUN, 154517, 459, 0, 285, 0, 1.41, 0.12, 0.00, 0.00, 0, 64
ATT, 154555, 0.00, -1.98, 0.00, 1.11, 188.73, 187.97, 0.07, 0.12
RCIN, 154555, 1500, 1499, 1483, 1499, 1898, 1402, 1898, 1498, 0, 0, 0, 0, 0, 0
CTUN, 154616, 561, 0, 383, 0, 1.4, 0.23, 0.00, 0.00, 0, 63
DU32, 7, 150905
CURR, 154617, 383, 5930, 1479, 4733, 4772, 22.14108
ATT, 154656, 0.00, -2.74, 0.00, 1.74, 188.73, 187.87, 0.07, 0.10
RCIN, 154656, 1502, 1499, 1555, 1499, 1898, 1402, 1898, 1498, 0, 0, 0, 0, 0, 0
GPS, 3, 120256200, 1902, 10, 1.41, 60.1915308, 24.7366166, 1.40, 10.04, 0.13, 212.34, 0.21, 154666
CTUN, 154716, 609, 0, 460, 0, 1.4, 0.57, 0.00, 0.00, 0, 70
ATT, 154755, 0.00, -3.29, 0.00, 2.71, 188.73, 187.56, 0.04, 0.19
RCIN, 154755, 1500, 1499, 1592, 1499, 1898, 1402, 1898, 1498, 0, 0, 0, 0, 0, 0
CTUN, 154818, 640, 1, 504, 0, 1.43, 0.30, 0.00, 0.00, 0, 102
ATT, 154857, 0.00, -2.94, 0.00, 3.20, 188.73, 187.31, 0.04, 0.31
RCIN, 154857, 1500, 1499, 1614, 1499, 1898, 1402, 1898, 1498, 0, 0, 0, 0, 0, 0
GPS, 3, 120256400, 1902, 10, 1.41, 60.1915307, 24.7366169, 1.47, 10.03, 0.03, 212.34, 0.05, 154867
CTUN, 154918, 638, 0, 503, 0, 1.5, 0.34, 0.00, 0.00, 0, 144
ATT, 154957, 0.00, -2.07, 0.00, 2.84, 188.73, 187.26, 0.04, 0.46
RCIN, 154957, 1501, 1499, 1612, 1499, 1898, 1402, 1898, 1498, 0, 0, 0, 0, 0, 0
CTUN, 155019, 575, 0, 454, 0, 1.61, 0.38, 0.00, 0.00, 0, 187
ATT, 155057, 0.00, -1.63, 0.00, 2.79, 188.73, 187.34, 0.04, 0.40
RCIN, 155057, 1501, 1499, 1488, 1499, 1898, 1402, 1898, 1498, 0, 0, 0, 0, 0, 0
GPS, 3, 120256600, 1902, 10, 1.41, 60.1915306, 24.7366171, 1.69, 10.09, 0.12, 212.34, -0.48, 155067
CTUN, 155118, 440, 0, 275, 0, 1.76, 0.29, 0.00, 0.00, 0, 229
ATT, 155157, 0.00, -1.17, 0.00, 2.04, 188.73, 187.70, 0.17, 0.27
RCIN, 155158, 1501, 1499, 1446, 1499, 1898, 1402, 1898, 1498, 0, 0, 0, 0, 0, 0
CTUN, 155218, 433, 0, 271, 0, 1.92, 0.31, 0.00, 0.00, 0, 248
GPS, 3, 120256800, 1902, 10, 1.41, 60.1915307, 24.7366179, 1.99, 10.30, 0.33, 212.34, -1.54, 155248
ATT, 155259, 0.00, -0.96, 0.00, 1.81, 188.73, 188.11, 0.03, 0.16
RCIN, 155259, 1499, 1499, 1443, 1499, 1898, 1402, 1898, 1498, 0, 0, 0, 0, 0, 0
CTUN, 155318, 433, 0, 271, 0, 2.1, 0.92, 0.00, 0.00, 0, 263
ATT, 155357, 0.00, -0.85, 0.00, 1.14, 188.73, 188.61, 0.03, 0.15
RCIN, 155357, 1499, 1499, 1443, 1499, 1898, 1402, 1898, 1498, 0, 0, 0, 0, 0, 0
CTUN, 155419, 433, 0, 271, 0, 2.31, 1.08, 0.00, 0.00, 0, 259
GPS, 3, 120257000, 1902, 10, 1.41, 60.1915311, 24.7366193, 2.39, 10.68, 0.41, 212.34, -1.72, 155448
ATT, 155468, 0.00, -1.39, 0.00, 1.00, 188.73, 189.16, 0.02, 0.14
RCIN, 155468, 1499, 1499, 1446, 1499, 1898, 1402, 1898, 1498, 0, 0, 0, 0, 0, 0
CTUN, 155518, 440, 0, 275, 0, 2.51, 1.25, 0.00, 0.00, 0, 252
RAD, 155528, 101, 0, 61, 27, 0, 7, 24
RAD, 155529, 101, 0, 61, 27, 0, 7, 24
ATT, 155568, 0.00, -1.70, 0.00, 1.01, 188.73, 189.59, 0.02, 0.07
RCIN, 155568, 1499, 1499, 1452, 1499, 1898, 1402, 1898, 1498, 0, 0, 0, 0, 0, 0
CTUN, 155618, 440, 0, 275, 0, 2.69, 1.52, 0.00, 0.00, 0, 224
DU32, 7, 150905
CURR, 155619, 275, 9481, 1496, 4124, 4772, 38.56775
GPS, 3, 120257200, 1902, 10, 1.41, 60.1915314, 24.7366206, 2.79, 11.02, 0.39, 212.34, -1.53, 155667
ATT, 155679, 0.00, -1.27, 0.00, 1.03, 188.73, 189.86, 0.11, 0.20
RCIN, 155679, 1499, 1499, 1409, 1499, 1898, 1402, 1898, 1498, 0, 0, 0, 0, 0, 0
CTUN, 155718, 395, 0, 250, 0, 2.86, 1.66, 0.00, 0.00, 0, 214
ATT, 155777, 0.00, -1.30, 0.00, 0.97, 188.73, 189.94, 0.11, 0.15
RCIN, 155777, 1499, 1499, 1411, 1499, 1898, 1402, 1898, 1498, 0, 0, 0, 0, 0, 0
CTUN, 155818, 396, 0, 250, 0, 3.01, 1.60, 0.00, 0.00, 0, 195
GPS, 3, 120257400, 1902, 10, 1.41, 60.1915317, 24.7366229, 3.08, 11.26, 0.96, 133.81, -1.13, 155867
ATT, 155888, 0.00, -1.27, 0.00, 0.88, 188.73, 189.87, 0.42, 0.15
RCIN, 155888, 1501, 1499, 1413, 1499, 1898, 1402, 1898, 1498, 0, 0, 0, 0, 0, 0
CTUN, 155918, 396, 0, 250, 0, 3.13, 1.82, 0.00, 0.00, 0, 182
ATT, 155988, 0.00, -1.28, 0.00, 0.70, 188.73, 189.74, 0.42, 0.11
RCIN, 155989, 1503, 1488, 1412, 1499, 1898, 1402, 1898, 1497, 0, 0, 0, 0, 0, 0
CTUN, 156018, 396, 0, 250, 0, 3.24, 2.06, 0.00, 0.00, 0, 163
GPS, 3, 120257600, 1902, 10, 1.41, 60.191532, 24.7366259, 3.29, 11.47, 0.66, 116.18, -0.76, 156068
ATT, 156088, 0.00, -1.33, 0.00, 0.76, 188.73, 189.62, 0.19, 0.12
RCIN, 156089, 1503, 1487, 1413, 1499, 1898, 1402, 1898, 1498, 0, 0, 0, 0, 0, 0
CTUN, 156118, 396, 0, 250, 0, 3.33, 2.10, 0.00, 0.00, 0, 135
ATT, 156188, 0.00, -0.88, 0.00, 0.67, 188.73, 189.52, 0.19, 0.06
RCIN, 156189, 1503, 1485, 1427, 1499, 1898, 1402, 1898, 1498, 0, 0, 0, 0, 0, 0
CTUN, 156218, 424, 0, 261, 0, 3.39, 2.12, 0.00, 0.00, 0, 117
RAD, 156249, 101, 0, 70, 25, 0, 7, 24
RAD, 156249, 101, 0, 70, 25, 0, 7, 24
GPS, 3, 120257800, 1902, 10, 1.41, 60.1915323, 24.7366279, 3.42, 11.59, 0.48, 116.18, -0.19, 156268
ATT, 156287, 0.00, -0.68, 0.00, 0.38, 188.73, 189.42, 0.22, 0.12
RCIN, 156288, 1502, 1480, 1439, 1499, 1898, 1402, 1898, 1498, 0, 0, 0, 0, 0, 0
CTUN, 156318, 429, 0, 269, 0, 3.44, 2.51, 0.00, 0.00, 0, 100
ATT, 156388, 0.00, -0.70, 0.00, 0.51, 188.73, 189.30, 0.22, 0.10
RCIN, 156388, 1502, 1482, 1440, 1499, 1898, 1402, 1898, 1497, 0, 0, 0, 0, 0, 0
CTUN, 156418, 430, 0, 270, 0, 3.48, 2.34, 0.00, 0.00, 0, 83
GPS, 3, 120258000, 1902, 10, 1.41, 60.1915327, 24.7366295, 3.49, 11.60, 0.50, 116.18, 0.19, 156488
ATT, 156489, 0.00, -0.61, 0.00, 0.56, 188.73, 189.16, 0.22, 0.07
RCIN, 156489, 1505, 1478, 1440, 1499, 1898, 1402, 1898, 1498, 0, 0, 0, 0, 0, 0
CTUN, 156518, 430, 0, 270, 0, 3.5, 2.44, 0.00, 0.00, 0, 69
ATT, 156588, 0.00, -0.65, 0.00, 0.37, 188.73, 189.06, 0.03, 0.15
RCIN, 156588, 1509, 1478, 1440, 1499, 1898, 1402, 1898, 1498, 0, 0, 0, 0, 0, 0
CTUN, 156618, 429, 0, 270, 0, 3.5, 2.62, 0.00, 0.00, 0, 57
DU32, 7, 150905
CURR, 156619, 270, 12073, 1491, 4070, 4813, 49.05811
GPS, 3, 120258200, 1902, 10, 1.41, 60.191533, 24.7366313, 3.50, 11.55, 0.53, 116.18, 0.34, 156687
ATT, 156688, 0.00, -0.68, 0.00, 0.26, 188.73, 189.00, 0.03, 0.09
RCIN, 156688, 1527, 1469, 1439, 1499, 1898, 1402, 1898, 1497, 0, 0, 0, 0, 0, 0
CTUN, 156718, 429, 0, 269, 0, 3.5, 2.30, 0.00, 0.00, 0, 39
ATT, 156788, 0.49, -0.26, -0.85, 0.38, 188.73, 189.02, 0.10, 0.13
RCIN, 156788, 1535, 1462, 1448, 1499, 1898, 1402, 1898, 1498, 0, 0, 0, 0, 0, 0
CTUN, 156818, 446, 0, 279, 0, 3.46, 2.41, 0.00, 0.00, 0, 7
GPS, 3, 120258400, 1902, 10, 1.41, 60.1915336, 24.7366332, 3.42, 11.54, 0.63, 90.16, 0.52, 156868
ATT, 156888, 0.24, 0.54, -0.48, -0.31, 188.73, 189.15, 0.09, 0.16
RCIN, 156888, 1536, 1465, 1458, 1499, 1898, 1402, 1898, 1498, 0, 0, 0, 0, 0, 0
CTUN, 156918, 452, 0, 282, 0, 3.39, 2.83, 0.00, 0.00, 0, -15
ATT, 156988, 1.10, 0.28, -0.48, 0.21, 188.73, 189.40, 0.09, 0.17
RCIN, 156988, 1538, 1463, 1458, 1499, 1898, 1402, 1898, 1497, 0, 0, 0, 0, 0, 0
CTUN, 157018, 452, 0, 282, 0, 3.34, 2.79, 0.00, 0.00, 0, -16
GPS, 3, 120258600, 1902, 10, 1.41, 60.191534, 24.736635, 3.31, 11.43, 0.44, 90.16, 0.75, 157068
ATT, 157088, 2.32, 0.82, -1.46, 0.19, 188.73, 189.71, 0.18, 0.13
RCIN, 157088, 1550, 1457, 1458, 1499, 1898, 1402, 1898, 1498, 0, 0, 0, 0, 0, 0
CTUN, 157118, 452, 0, 282, 0, 3.29, 2.71, 0.00, 0.00, 0, -22
ATT, 157188, 3.18, 1.76, -3.66, -0.12, 188.73, 190.03, 0.18, 0.18
RCIN, 157188, 1557, 1439, 1458, 1499, 1898, 1402, 1898, 1498, 0, 0, 0, 0, 0, 0
CTUN, 157218, 452, 0, 282, 0, 3.22, 2.75, 0.00, 0.00, 0, -31
GPS, 3, 120258800, 1902, 10, 1.41, 60.1915343, 24.7366369, 3.19, 11.28, 0.58, 81.91, 0.88, 157268
ATT, 157288, 3.18, 2.85, -4.89, -2.26, 188.73, 190.31, 0.08, 0.23
RCIN, 157288, 1549, 1432, 1458, 1499, 1898, 1402, 1898, 1497, 0, 0, 0, 0, 0, 0
CTUN, 157318, 452, 0, 282, 0, 3.16, 2.66, 0.00, 0.00, 0, -35
ATT, 157388, 1.96, 3.61, -3.66, -3.83, 188.73, 190.63, 0.08, 0.19
RCIN, 157388, 1550, 1437, 1469, 1500, 1898, 1402, 1898, 1498, 0, 0, 0, 0, 0, 0
CTUN, 157418, 475, 0, 290, 0, 3.09, 2.34, 0.00, 0.00, 0, -36
GPS, 3, 120259000, 1902, 10, 1.41, 60.191535, 24.7366386, 3.04, 11.20, 0.51, 65.63, 0.86, 157468
ATT, 157489, 1.22, 2.09, -3.66, -2.35, 188.73, 191.17, 0.09, 0.16
RCIN, 157489, 1541, 1439, 1477, 1500, 1898, 1402, 1898, 1498, 0, 0, 0, 0, 0, 0
CTUN, 157518, 475, 0, 295, 0, 3, 2.42, 0.00, 0.00, 0, -47
ATT, 157588, 0.12, 1.59, -4.27, -3.16, 188.73, 191.37, 0.09, 0.11
RCIN, 157588, 1532, 1434, 1477, 1500, 1898, 1402, 1898, 1497, 0, 0, 0, 0, 0, 0
CTUN, 157618, 475, 0, 295, 0, 2.91, 2.30, 0.00, 0.00, 0, -54
DU32, 7, 150905
CURR, 157619, 295, 14911, 1475, 4657, 4772, 61.35461
GPS, 3, 120259200, 1902, 10, 1.41, 60.1915356, 24.7366404, 2.85, 11.08, 0.64, 71.27, 0.87, 157668
ATT, 157688, 0.00, 1.06, -3.17, -3.01, 188.73, 191.30, 0.17, 0.19
RCIN, 157688, 1526, 1447, 1477, 1500, 1898, 1402, 1898, 1498, 0, 0, 0, 0, 0, 0
CTUN, 157718, 475, 0, 295, 0, 2.81, 2.35, 0.00, 0.00, 0, -56
RAD, 157788, 101, 0, 42, 67, 0, 7, 24
RAD, 157788, 101, 0, 42, 67, 0, 7, 24
ATT, 157789, 0.00, 0.07, -2.69, -2.63, 188.73, 191.02, 0.17, 0.16
RCIN, 157789, 1533, 1445, 1492, 1500, 1898, 1402, 1898, 1498, 0, 0, 0, 0, 0, 0
CTUN, 157818, 499, 0, 306, 0, 2.72, 2.09, 0.00, 0.00, 0, -59
GPS, 3, 120259400, 1902, 10, 1.41, 60.1915361, 24.7366422, 2.65, 10.96, 0.42, 71.27, 0.81, 157868
ATT, 157889, 0.00, -0.15, -2.20, -2.64, 188.73, 190.51, 0.05, 0.11
RCIN, 157889, 1526, 1451, 1497, 1500, 1898, 1402, 1898, 1498, 0, 0, 0, 0, 0, 0
CTUN, 157918, 498, 0, 308, 0, 2.61, 1.97, 0.00, 0.00, 0, -76
ATT, 157988, 0.00, 0.28, -2.32, -2.64, 188.73, 189.98, 0.05, 0.17
RCIN, 157988, 1531, 1450, 1497, 1499, 1898, 1402, 1898, 1498, 0, 0, 0, 0, 0, 0
CTUN, 158018, 499, 0, 309, 0, 2.49, 1.50, 0.00, 0.00, 0, -71
GPS, 3, 120259600, 1902, 10, 1.41, 60.1915364, 24.7366436, 2.41, 10.76, 0.39, 71.27, 1.2, 158070
ATT, 158090, 0.00, 0.30, -2.56, -1.95, 188.73, 189.58, 0.00, 0.18
RCIN, 158090, 1526, 1450, 1497, 1500, 1898, 1402, 1898, 1498, 0, 0, 0, 0, 0, 0
CTUN, 158121, 516, 0, 309, 0, 2.36, 1.37, 0.00, 0.00, 0, -74
ATT, 158190, 0.00, 0.14, -1.95, -2.26, 188.73, 189.38, 0.00, 0.12
RCIN, 158190, 1524, 1453, 1525, 1500, 1898, 1402, 1898, 1498, 0, 0, 0, 0, 0, 0
CTUN, 158220, 533, 0, 355, 0, 2.23, 1.42, 0.00, 0.00, 0, -70
GPS, 3, 120259800, 1902, 10, 1.41, 60.1915367, 24.7366443, 2.16, 10.59, 0.04, 71.27, 1.1, 158269
ATT, 158290, 0.00, 0.21, -1.71, -1.27, 188.73, 189.29, 0.18, 0.14
RCIN, 158290, 1521, 1455, 1528, 1500, 1898, 1402, 1898, 1498, 0, 0, 0, 0, 0, 0
CTUN, 158320, 554, 0, 384, 0, 2.11, 1.44, 0.00, 0.00, 0, -41
ATT, 158389, 0.00, 0.44, -1.71, -1.17, 188.73, 189.33, 0.18, 0.27
RCIN, 158390, 1526, 1455, 1543, 1500, 1898, 1402, 1898, 1498, 0, 0, 0, 0, 0, 0
CTUN, 158420, 554, 0, 384, 0, 2.04, 1.36, 0.00, 0.00, 0, -27
GPS, 3, 120260000, 1902, 10, 1.41, 60.1915366, 24.7366446, 1.99, 10.33, 0.18, 71.27, 1.13, 158469
ATT, 158490, 0.00, 0.27, -0.85, -1.30, 188.73, 189.46, 0.09, 0.24
RCIN, 158490, 1529, 1459, 1548, 1500, 1898, 1402, 1898, 1498, 0, 0, 0, 0, 0, 0
CTUN, 158520, 561, 0, 394, 0, 1.95, 1.13, 0.00, 0.00, 0, -38
ATT, 158590, 0.00, -0.07, -0.73, -0.43, 188.73, 189.50, 0.09, 0.22
RCIN, 158590, 1520, 1463, 1548, 1499, 1898, 1402, 1898, 1498, 0, 0, 0, 0, 0, 0
CTUN, 158620, 561, 0, 394, 0, 1.89, 0.70, 0.00, 0.00, 0, 3
DU32, 7, 150905
CURR, 158621, 394, 18325, 1460, 6736, 4813, 76.61087
PM, 3, 1003, 12248, 2, 1, 0, 4
GPS, 3, 120260200, 1902, 10, 1.41, 60.1915366, 24.7366448, 1.85, 10.14, 0.04, 71.27, 0.87, 158669
ATT, 158690, 0.00, 0.00, -1.10, -0.65, 188.73, 189.50, 0.11, 0.25
RCIN, 158691, 1528, 1460, 1546, 1500, 1898, 1402, 1898, 1498, 0, 0, 0, 0, 0, 0
CTUN, 158720, 531, 0, 352, 0, 1.84, 0.54, 0.00, 0.00, 0, 40
ATT, 158790, 0.00, 0.17, -1.71, -0.72, 188.73, 189.52, 0.11, 0.26
RCIN, 158790, 1529, 1455, 1485, 1500, 1898, 1402, 1898, 1498, 0, 0, 0, 0, 0, 0
CTUN, 158821, 484, 0, 300, 0, 1.81, 0.65, 0.00, 0.00, 0, 62
GPS, 3, 120260400, 1902, 10, 1.41, 60.1915362, 24.7366445, 1.81, 9.99, 0.22, 71.27, 0.4, 158850
ATT, 158890, 0.00, 0.24, -1.83, -1.03, 188.73, 189.40, 0.28, 0.17
RCIN, 158890, 1531, 1455, 1485, 1500, 1898, 1402, 1898, 1497, 0, 0, 0, 0, 0, 0
CTUN, 158920, 484, 0, 300, 0, 1.8, 0.51, 0.00, 0.00, 0, 47
ATT, 158990, 0.36, 0.46, -2.20, -0.90, 188.73, 189.24, 0.28, 0.17
RCIN, 158990, 1534, 1451, 1485, 1500, 1898, 1402, 1898, 1498, 0, 0, 0, 0, 0, 0
CTUN, 159021, 484, 0, 300, 0, 1.78, 0.62, 0.00, 0.00, 0, 51
GPS, 3, 120260600, 1902, 10, 1.41, 60.1915359, 24.7366442, 1.77, 9.96, 0.19, 71.27, 0.02, 159069
ATT, 159089, 0.73, 0.45, -2.81, -1.80, 188.73, 189.15, 0.17, 0.15
RCIN, 159090, 1537, 1446, 1484, 1500, 1898, 1402, 1898, 1497, 0, 0, 0, 0, 0, 0
CTUN, 159120, 483, 0, 300, 0, 1.77, 0.91, 0.00, 0.00, 0, 64
ATT, 159190, 0.00, 1.12, -1.46, -2.65, 188.73, 188.99, 0.17, 0.15
RCIN, 159190, 1525, 1457, 1485, 1499, 1898, 1402, 1898, 1498, 0, 0, 0, 0, 0, 0
CTUN, 159220, 484, 0, 300, 0, 1.8, 1.06, 0.00, 0.00, 0, 71
GPS, 3, 120260800, 1902, 10, 1.41, 60.1915356, 24.7366441, 1.82, 10.02, 0.19, 71.27, -0.15, 159270
ATT, 159290, 0.00, 0.08, -1.34, -1.84, 188.73, 188.89, 0.13, 0.25
RCIN, 159290, 1526, 1458, 1499, 1500, 1898, 1402, 1898, 1498, 0, 0, 0, 0, 0, 0
CTUN, 159320, 504, 0, 315, 0, 1.83, 0.95, 0.00, 0.00, 0, 79
ATT, 159390, 0.00, -0.53, -0.85, -1.93, 188.73, 188.79, 0.13, 0.07
RCIN, 159390, 1522, 1462, 1499, 1500, 1898, 1402, 1898, 1498, 0, 0, 0, 0, 0, 0
CTUN, 159420, 501, 0, 311, 0, 1.87, 1.21, 0.00, 0.00, 0, 91
RAD, 159430, 101, 0, 20, 26, 0, 7, 24
RAD, 159431, 101, 0, 20, 26, 0, 7, 24
GPS, 3, 120261000, 1902, 10, 1.41, 60.1915355, 24.736644, 1.90, 10.12, 0.18, 71.27, -0.14, 159469
ATT, 159489, 0.36, -0.25, -1.95, -1.48, 188.73, 188.70, 0.07, 0.16
RCIN, 159490, 1534, 1453, 1499, 1500, 1898, 1402, 1898, 1498, 0, 0, 0, 0, 0, 0
CTUN, 159520, 501, 0, 311, 0, 1.92, 1.08, 0.00, 0.00, 0, 81
ATT, 159590, 0.61, -0.04, -2.32, -1.58, 188.73, 188.69, 0.07, 0.21
RCIN, 159590, 1536, 1450, 1499, 1500, 1898, 1402, 1898, 1497, 0, 0, 0, 0, 0, 0
CTUN, 159621, 501, 0, 311, 0, 1.97, 1.26, 0.00, 0.00, 0, 91
DU32, 7, 150905
CURR, 159630, 311, 21459, 1481, 4981, 4772, 90.54713
GPS, 3, 120261200, 1902, 10, 1.41, 60.1915353, 24.7366437, 2.00, 10.14, 0.06, 71.27, -0.04, 159670
ATT, 159690, 1.47, 0.04, -3.30, -2.12, 188.73, 188.71, 0.09, 0.17
RCIN, 159690, 1543, 1442, 1499, 1500, 1898, 1402, 1898, 1498, 0, 0, 0, 0, 0, 0
CTUN, 159720, 501, 0, 311, 0, 2.03, 1.19, 0.00, 0.00, 0, 102
ATT, 159790, 1.83, 0.35, -2.32, -2.96, 188.73, 188.82, 0.09, 0.17
RCIN, 159791, 1546, 1450, 1499, 1499, 1898, 1402, 1898, 1498, 0, 0, 0, 0, 0, 0
CTUN, 159820, 501, 0, 311, 0, 2.09, 1.23, 0.00, 0.00, 0, 96
GPS, 3, 120261400, 1902, 10, 1.41, 60.1915349, 24.7366437, 2.12, 10.19, 0.44, 113.73, 0.03, 159869
ATT, 159889, 1.22, 1.09, -2.32, -2.68, 188.73, 189.01, 0.28, 0.17
RCIN, 159890, 1541, 1450, 1499, 1500, 1898, 1402, 1898, 1498, 0, 0, 0, 0, 0, 0
CTUN, 159920, 501, 0, 311, 0, 2.14, 1.14, 0.00, 0.00, 0, 100
ATT, 159991, 1.10, 0.90, -2.32, -2.54, 188.73, 189.24, 0.28, 0.24
RCIN, 159991, 1540, 1450, 1499, 1500, 1898, 1402, 1898, 1498, 0, 0, 0, 0, 0, 0
CTUN, 160020, 501, 0, 311, 0, 2.19, 1.11, 0.00, 0.00, 0, 106
GPS, 3, 120261600, 1902, 10, 1.41, 60.1915346, 24.736644, 2.22, 10.26, 0.11, 113.73, -0.02, 160069
ATT, 160089, 1.47, 0.49, -2.32, -2.68, 188.73, 189.40, 0.30, 0.12
RCIN, 160089, 1543, 1450, 1499, 1500, 1898, 1402, 1898, 1497, 0, 0, 0, 0, 0, 0
CTUN, 160120, 501, 0, 311, 0, 2.24, 1.04, 0.00, 0.00, 0, 105
ATT, 160190, 1.71, 0.41, -2.07, -2.06, 188.73, 189.46, 0.30, 0.17
RCIN, 160190, 1545, 1452, 1499, 1500, 1898, 1402, 1898, 1497, 0, 0, 0, 0, 0, 0
CTUN, 160220, 501, 0, 311, 0, 2.29, 1.39, 0.00, 0.00, 0, 110
GPS, 3, 120261800, 1902, 10, 1.41, 60.1915341, 24.7366438, 2.32, 10.28, 0.37, 141.25, 0.06, 160269
ATT, 160290, 1.83, 0.78, -2.20, -2.38, 188.73, 189.48, 0.10, 0.16
RCIN, 160290, 1546, 1451, 1499, 1500, 1898, 1402, 1898, 1497, 0, 0, 0, 0, 0, 0
CTUN, 160320, 501, 0, 311, 0, 2.34, 1.46, 0.00, 0.00, 0, 95
RAD, 160321, 72, 0, 32, 25, 0, 7, 24
RAD, 160322, 72, 0, 32, 25, 0, 7, 24
ATT, 160390, 2.20, 1.16, -2.93, -2.56, 188.73, 189.55, 0.10, 0.17
RCIN, 160390, 1549, 1445, 1499, 1500, 1898, 1402, 1898, 1497, 0, 0, 0, 0, 0, 0
CTUN, 160420, 501, 0, 311, 0, 2.4, 1.37, 0.00, 0.00, 0, 104
GPS, 3, 120262000, 1902, 10, 1.41, 60.1915335, 24.7366434, 2.43, 10.28, 0.41, 168.35, 0.13, 160470
ATT, 160489, 1.96, 1.52, -3.30, -2.75, 188.73, 189.52, 0.08, 0.20
RCIN, 160489, 1547, 1442, 1499, 1500, 1898, 1402, 1898, 1497, 0, 0, 0, 0, 0, 0
CTUN, 160520, 501, 0, 311, 0, 2.44, 1.55, 0.00, 0.00, 0, 86
ATT, 160590, 2.45, 1.57, -2.81, -2.98, 188.73, 189.51, 0.08, 0.21
RCIN, 160590, 1556, 1442, 1499, 1500, 1898, 1402, 1898, 1498, 0, 0, 0, 0, 0, 0
CTUN, 160620, 501, 0, 311, 0, 2.49, 1.90, 0.00, 0.00, 0, 88
DU32, 7, 150905
CURR, 160630, 311, 24569, 1479, 4931, 4752, 104.2499
GPS, 3, 120262200, 1902, 10, 1.41, 60.191533, 24.7366427, 2.52, 10.37, 0.45, 183.83, 0.01, 160670
ATT, 160690, 2.45, 1.90, -3.05, -3.09, 188.73, 189.50, 0.05, 0.16
RCIN, 160690, 1551, 1444, 1499, 1500, 1898, 1402, 1898, 1498, 0, 0, 0, 0, 0, 0
CTUN, 160720, 501, 0, 311, 0, 2.55, 1.69, 0.00, 0.00, 0, 86
ATT, 160789, 2.69, 2.33, -2.32, -2.89, 188.73, 189.52, 0.05, 0.18
RCIN, 160789, 1553, 1450, 1499, 1500, 1898, 1402, 1898, 1498, 0, 0, 0, 0, 0, 0
CTUN, 160820, 501, 0, 311, 0, 2.59, 1.80, 0.00, 0.00, 0, 81
GPS, 3, 120262400, 1902, 10, 1.41, 60.1915324, 24.736642, 2.61, 10.45, 0.42, 193.33, -0.08, 160870
ATT, 160890, 2.82, 2.27, -1.58, -2.18, 188.73, 189.53, 0.05, 0.20
RCIN, 160890, 1554, 1456, 1499, 1500, 1898, 1402, 1898, 1498, 0, 0, 0, 0, 0, 0
CTUN, 160920, 501, 0, 311, 0, 2.62, 1.86, 0.00, 0.00, 0, 64
ATT, 160990, 1.96, 2.39, 0.00, -1.62, 188.73, 189.53, 0.05, 0.16
RCIN, 160990, 1547, 1474, 1499, 1500, 1898, 1402, 1898, 1498, 0, 0, 0, 0, 0, 0
CTUN, 161020, 501, 0, 311, 0, 2.64, 1.84, 0.00, 0.00, 0, 61
GPS, 3, 120262600, 1902, 10, 1.41, 60.1915314, 24.7366413, 2.65, 10.46, 0.68, 191.29, 0.01, 161069
ATT, 161090, 3.06, 1.58, 0.00, -0.02, 188.73, 189.63, 0.16, 0.21
RCIN, 161090, 1559, 1473, 1499, 1500, 1898, 1402, 1898, 1498, 0, 0, 0, 0, 0, 0
CTUN, 161120, 501, 0, 311, 0, 2.66, 2.06, 0.00, 0.00, 0, 65
ATT, 161190, 2.57, 1.96, 0.00, -0.81, 188.73, 189.69, 0.16, 0.03
RCIN, 161190, 1552, 1480, 1499, 1500, 1898, 1402, 1898, 1497, 0, 0, 0, 0, 0, 0
CTUN, 161220, 501, 0, 311, 0, 2.7, 2.15, 0.00, 0.00, 0, 73
GPS, 3, 120262800, 1902, 10, 1.41, 60.1915302, 24.736641, 2.73, 10.46, 0.69, 186.13, 0.08, 161269
RAD, 161290, 54, 0, 46, 27, 0, 7, 24
RAD, 161290, 54, 0, 46, 27, 0, 7, 24
ATT, 161299, 3.43, 2.70, 0.00, 0.23, 188.73, 189.89, 0.10, 0.24
RCIN, 161299, 1563, 1475, 1499, 1501, 1898, 1402, 1898, 1498, 0, 0, 0, 0, 0, 0
CTUN, 161320, 501, 0, 311, 0, 2.75, 2.14, 0.00, 0.00, 0, 82
ATT, 161399, 3.43, 2.91, 0.00, -0.02, 188.73, 189.99, 0.10, 0.16
RCIN, 161400, 1559, 1472, 1499, 1500, 1898, 1402, 1898, 1498, 0, 0, 0, 0, 0, 0
CTUN, 161420, 501, 0, 311, 0, 2.81, 2.19, 0.00, 0.00, 0, 102
GPS, 3, 120263000, 1902, 10, 1.41, 60.1915292, 24.7366405, 2.85, 10.46, 0.50, 190.15, 0.03, 161469
ATT, 161499, 3.43, 3.36, 0.00, 0.13, 188.73, 190.06, 0.28, 0.13
RCIN, 161500, 1559, 1473, 1499, 1502, 1898, 1402, 1898, 1498, 0, 0, 0, 0, 0, 0
CTUN, 161520, 501, 0, 311, 0, 2.88, 2.21, 0.00, 0.00, 0, 97
ATT, 161601, 3.43, 3.05, 0.00, 0.12, 188.73, 190.05, 0.28, 0.22
RCIN, 161602, 1559, 1478, 1499, 1500, 1898, 1402, 1898, 1497, 0, 0, 0, 0, 0, 0
CTUN, 161622, 501, 0, 311, 0, 2.95, 2.27, 0.00, 0.00, 0, 104
DU32, 7, 150905
CURR, 161632, 311, 27679, 1493, 4943, 4793, 118.0856
GPS, 3, 120263200, 1902, 10, 1.41, 60.1915288, 24.7366396, 2.99, 10.58, 0.42, 190.15, 0.04, 161671
ATT, 161701, 2.69, 3.30, 0.00, 0.10, 188.73, 189.99, 0.03, 0.09
RCIN, 161701, 1552, 1478, 1499, 1500, 1898, 1402, 1898, 1498, 0, 0, 0, 0, 0, 0
CTUN, 161722, 501, 0, 311, 0, 3.02, 2.03, 0.00, 0.00, 0, 108
RAD, 161732, 48, 0, 55, 28, 0, 7, 24
RAD, 161733, 48, 0, 55, 28, 0, 7, 24
ATT, 161801, 3.18, 2.62, 0.00, -0.07, 188.73, 189.91, 0.03, 0.18
RCIN, 161801, 1557, 1478, 1499, 1500, 1898, 1402, 1898, 1498, 0, 0, 0, 0, 0, 0
CTUN, 161822, 501, 0, 311, 0, 3.08, 2.22, 0.00, 0.00, 0, 103
GPS, 3, 120263400, 1902, 10, 1.41, 60.1915284, 24.7366383, 3.12, 10.65, 0.61, 207.24, -0.03, 161870
ATT, 161901, 2.32, 2.35, 0.00, -0.21, 188.73, 189.78, 0.13, 0.12
RCIN, 161901, 1550, 1476, 1499, 1500, 1898, 1402, 1898, 1498, 0, 0, 0, 0, 0, 0
CTUN, 161922, 501, 0, 311, 0, 3.13, 2.03, 0.00, 0.00, 0, 94
ATT, 162000, 2.94, 2.49, 0.00, -0.17, 188.73, 189.69, 0.13, 0.16
RCIN, 162001, 1555, 1475, 1499, 1500, 1898, 1402, 1898, 1498, 0, 0, 0, 0, 0, 0
CTUN, 162022, 501, 0, 311, 0, 3.17, 2.02, 0.00, 0.00, 0, 89
GPS, 3, 120263600, 1902, 10, 1.41, 60.1915277, 24.7366369, 3.19, 10.62, 0.45, 207.24, 0.04, 162070
ATT, 162100, 3.18, 2.40, 0.00, -0.50, 188.73, 189.65, 0.16, 0.16
RCIN, 162101, 1557, 1476, 1499, 1500, 1898, 1402, 1898, 1498, 0, 0, 0, 0, 0, 0
CTUN, 162122, 501, 0, 311, 0, 3.2, 2.03, 0.00, 0.00, 0, 94
ATT, 162201, 2.94, 2.60, 0.00, -0.67, 188.73, 189.64, 0.16, 0.13
RCIN, 162201, 1555, 1477, 1499, 1500, 1898, 1402, 1898, 1498, 0, 0, 0, 0, 0, 0
CTUN, 162222, 501, 0, 311, 0, 3.22, 1.96, 0.00, 0.00, 0, 81
GPS, 3, 120263800, 1902, 10, 1.41, 60.1915272, 24.7366354, 3.23, 10.66, 0.55, 215.30, 0.04, 162271
ATT, 162300, 2.57, 2.65, 0.00, -0.15, 188.73, 189.62, 0.08, 0.16
RCIN, 162301, 1552, 1477, 1499, 1500, 1898, 1402, 1898, 1498, 0, 0, 0, 0, 0, 0
CTUN, 162322, 501, 0, 311, 0, 3.24, 1.95, 0.00, 0.00, 0, 84
ATT, 162401, 2.94, 2.69, 0.00, -0.19, 188.73, 189.58, 0.08, 0.18
RCIN, 162402, 1555, 1477, 1499, 1500, 1898, 1402, 1898, 1498, 0, 0, 0, 0, 0, 0
CTUN, 162422, 501, 0, 311, 0, 3.25, 2.08, 0.00, 0.00, 0, 75
ATT, 162501, 2.69, 2.84, 0.00, -0.22, 188.73, 189.59, 0.08, 0.17
RCIN, 162501, 1553, 1478, 1499, 1500, 1898, 1402, 1898, 1497, 0, 0, 0, 0, 0, 0
GPS, 3, 120264000, 1902, 10, 1.41, 60.1915266, 24.7366336, 3.27, 10.66, 0.66, 229.57, 0.09999999, 162511
CTUN, 162532, 501, 0, 311, 0, 3.27, 2.01, 0.00, 0.00, 0, 71
ATT, 162602, 2.45, 2.80, 0.00, -0.01, 188.73, 189.62, 0.02, 0.17
RCIN, 162602, 1551, 1479, 1499, 1503, 1898, 1402, 1898, 1498, 0, 0, 0, 0, 0, 0
CTUN, 162632, 501, 0, 311, 0, 3.28, 1.97, 0.00, 0.00, 0, 80
DU32, 7, 150905
CURR, 162641, 311, 30789, 1490, 4983, 4834, 131.8332
ATT, 162702, 2.32, 2.27, 0.00, 0.36, 188.73, 189.60, 0.02, 0.14
RCIN, 162702, 1550, 1479, 1499, 1501, 1898, 1402, 1898, 1498, 0, 0, 0, 0, 0, 0
CTUN, 162732, 501, 0, 311, 0, 3.28, 1.87, 0.00, 0.00, 0, 68
ATT, 162802, 2.69, 2.02, 0.00, 0.48, 188.73, 189.71, 0.02, 0.14
RCIN, 162802, 1553, 1479, 1499, 1501, 1898, 1402, 1898, 1498, 0, 0, 0, 0, 0, 0
CTUN, 162842, 501, 0, 311, 0, 3.26, 2.03, 0.00, 0.00, 0, 49
GPS, 3, 120264400, 1902, 10, 1.41, 60.1915257, 24.7366294, 3.25, 10.50, 0.59, 240.86, 0.31, 162871
RAD, 162891, 41, 0, 63, 27, 0, 7, 24
RAD, 162892, 41, 0, 63, 27, 0, 7, 24
ATT, 162901, 3.18, 2.18, 0.00, -0.39, 188.73, 189.76, 0.10, 0.16
RCIN, 162902, 1557, 1479, 1499, 1499, 1898, 1402, 1898, 1498, 0, 0, 0, 0, 0, 0
CTUN, 162941, 501, 0, 311, 0, 3.24, 2.06, 0.00, 0.00, 0, 57
ATT, 163001, 3.18, 2.50, 0.00, -0.30, 188.73, 189.84, 0.10, 0.16
RCIN, 163001, 1556, 1473, 1499, 1499, 1898, 1402, 1898, 1498, 0, 0, 0, 0, 0, 0
CTUN, 163042, 501, 0, 311, 0, 3.22, 2.14, 0.00, 0.00, 0, 45
GPS, 3, 120264600, 1902, 10, 1.41, 60.1915253, 24.7366271, 3.21, 10.45, 0.75, 243.64, 0.18, 163071
ATT, 163101, 2.69, 2.92, 0.00, -0.17, 188.73, 189.99, 0.08, 0.17
RCIN, 163101, 1553, 1473, 1499, 1499, 1898, 1402, 1898, 1497, 0, 0, 0, 0, 0, 0
CTUN, 163141, 501, 0, 311, 0, 3.2, 2.14, 0.00, 0.00, 0, 44
ATT, 163201, 2.57, 3.09, 0.00, -0.20, 188.73, 190.04, 0.08, 0.17
RCIN, 163201, 1552, 1473, 1499, 1499, 1898, 1402, 1898, 1498, 0, 0, 0, 0, 0, 0
CTUN, 163241, 501, 0, 311, 0, 3.19, 2.16, 0.00, 0.00, 0, 47
GPS, 3, 120264800, 1902, 10, 1.41, 60.1915249, 24.7366245, 3.18, 10.48, 0.77, 243.51, 0.17, 163270
ATT, 163301, 1.96, 2.30, 0.00, -0.20, 188.73, 190.00, 0.11, 0.18
RCIN, 163302, 1545, 1477, 1499, 1499, 1898, 1402, 1898, 1498, 0, 0, 0, 0, 0, 0
CTUN, 163341, 501, 0, 311, 0, 3.17, 2.26, 0.00, 0.00, 0, 39
ATT, 163401, 1.59, 1.67, 0.00, -0.25, 188.73, 189.94, 0.11, 0.10
RCIN, 163401, 1544, 1476, 1499, 1499, 1898, 1402, 1898, 1498, 0, 0, 0, 0, 0, 0
CTUN, 163442, 501, 0, 311, 0, 3.16, 2.35, 0.00, 0.00, 0, 36
GPS, 3, 120265000, 1902, 10, 1.41, 60.1915244, 24.736622, 3.15, 10.48, 0.68, 244.57, 0.19, 163471
ATT, 163501, 0.85, 1.23, 0.00, -0.12, 188.73, 189.91, 0.10, 0.15
RCIN, 163502, 1538, 1476, 1499, 1499, 1898, 1402, 1898, 1498, 0, 0, 0, 0, 0, 0
CTUN, 163541, 501, 0, 311, 0, 3.15, 2.33, 0.00, 0.00, 0, 40
ATT, 163601, 0.00, 1.08, 0.00, -0.01, 188.73, 189.92, 0.10, 0.15
RCIN, 163601, 1528, 1474, 1499, 1499, 1898, 1402, 1898, 1498, 0, 0, 0, 0, 0, 0
CTUN, 163642, 501, 0, 311, 0, 3.14, 2.30, 0.00, 0.00, 0, 32
DU32, 7, 150905
CURR, 163643, 311, 33899, 1488, 4864, 4793, 145.4626
GPS, 3, 120265200, 1902, 10, 1.41, 60.1915242, 24.7366196, 3.14, 10.50, 0.79, 252.97, 0.2, 163671
ATT, 163701, 0.36, -0.02, 0.00, 0.11, 188.73, 189.93, 0.00, 0.17
RCIN, 163702, 1534, 1476, 1499, 1499, 1898, 1402, 1898, 1498, 0, 0, 0, 0, 0, 0
CTUN, 163741, 501, 0, 311, 0, 3.13, 2.15, 0.00, 0.00, 0, 42
ATT, 163801, 0.00, -0.08, -0.12, -0.12, 188.73, 189.95, 0.00, 0.07
RCIN, 163801, 1527, 1468, 1499, 1499, 1898, 1402, 1898, 1497, 0, 0, 0, 0, 0, 0
RAD, 163811, 37, 0, 72, 27, 0, 7, 24
RAD, 163812, 37, 0, 72, 27, 0, 7, 24
CTUN, 163841, 501, 0, 311, 0, 3.12, 2.06, 0.00, 0.00, 0, 31
GPS, 3, 120265400, 1902, 10, 1.41, 60.1915242, 24.736617, 3.11, 10.55, 0.69, 253.49, 0.2, 163871
ATT, 163901, 0.00, 0.07, -0.12, -0.05, 188.73, 189.95, 0.06, 0.21
RCIN, 163901, 1527, 1468, 1499, 1499, 1898, 1402, 1898, 1497, 0, 0, 0, 0, 0, 0
CTUN, 163941, 501, 0, 311, 0, 3.09, 2.33, 0.00, 0.00, 0, 28
ATT, 164001, 0.00, 0.01, 0.00, -0.01, 188.73, 189.94, 0.06, 0.17
RCIN, 164001, 1528, 1470, 1499, 1499, 1898, 1402, 1898, 1498, 0, 0, 0, 0, 0, 0
CTUN, 164041, 501, 0, 311, 0, 3.08, 1.84, 0.00, 0.00, 0, 41
GPS, 3, 120265600, 1902, 10, 1.41, 60.1915239, 24.7366148, 3.07, 10.59, 0.66, 247.37, 0.15, 164071
ATT, 164102, 0.36, 0.04, 0.00, -0.11, 188.73, 189.87, 0.06, 0.16
RCIN, 164102, 1534, 1470, 1499, 1499, 1898, 1402, 1898, 1498, 0, 0, 0, 0, 0, 0
CTUN, 164142, 501, 0, 311, 0, 3.05, 1.61, 0.00, 0.00, 0, 39
ATT, 164201, 0.36, 0.25, -0.12, 0.11, 188.73, 189.78, 0.06, 0.12
RCIN, 164201, 1536, 1468, 1499, 1499, 1898, 1402, 1898, 1498, 0, 0, 0, 0, 0, 0
CTUN, 164241, 501, 0, 311, 0, 3.01, 1.78, 0.00, 0.00, 0, 42
RAD, 164242, 37, 0, 75, 26, 0, 7, 24
RAD, 164243, 37, 0, 75, 26, 0, 7, 24
GPS, 3, 120265800, 1902, 10, 1.41, 60.1915238, 24.7366127, 3.00, 10.69, 0.64, 248.84, -0.08, 164271
ATT, 164301, 0.61, 0.41, -0.12, 0.02, 188.73, 189.73, 0.02, 0.15
RCIN, 164301, 1536, 1468, 1499, 1499, 1898, 1402, 1898, 1497, 0, 0, 0, 0, 0, 0
CTUN, 164341, 501, 0, 311, 0, 2.97, 1.73, 0.00, 0.00, 0, 33
ATT, 164401, 0.61, 0.54, -0.12, -0.33, 188.73, 189.69, 0.02, 0.15
RCIN, 164401, 1536, 1468, 1499, 1499, 1898, 1402, 1898, 1497, 0, 0, 0, 0, 0, 0
CTUN, 164442, 501, 0, 311, 0, 2.94, 1.71, 0.00, 0.00, 0, 36
GPS, 3, 120266000, 1902, 10, 1.41, 60.1915237, 24.736611, 2.93, 10.79, 0.42, 248.84, -0.09, 164471
ATT, 164501, 0.85, 0.74, -0.12, -0.18, 188.73, 189.63, 0.09, 0.13
RCIN, 164502, 1538, 1468, 1499, 1499, 1898, 1402, 1898, 1497, 0, 0, 0, 0, 0, 0
CTUN, 164541, 501, 0, 311, 0, 2.9, 1.86, 0.00, 0.00, 0, 38
ATT, 164601, 1.10, 0.85, 0.00, -0.26, 188.73, 189.58, 0.09, 0.15
RCIN, 164601, 1539, 1472, 1499, 1499, 1898, 1402, 1898, 1498, 0, 0, 0, 0, 0, 0
CTUN, 164642, 501, 0, 311, 0, 2.88, 1.75, 0.00, 0.00, 0, 25
DU32, 7, 150905
CURR, 164642, 311, 37009, 1485, 4908, 4813, 159.1214
GPS, 3, 120266200, 1902, 10, 1.41, 60.1915236, 24.7366094, 2.86, 10.87, 0.59, 251.13, -0.19, 164671
ATT, 164701, 0.98, 0.53, 0.00, -0.47, 188.73, 189.57, 0.09, 0.11
RCIN, 164702, 1537, 1474, 1499, 1499, 1898, 1402, 1898, 1498, 0, 0, 0, 0, 0, 0
CTUN, 164741, 501, 0, 311, 0, 2.84, 1.91, 0.00, 0.00, 0, 31
ATT, 164801, 0.24, 0.30, 0.00, -0.37, 188.73, 189.54, 0.09, 0.09
RCIN, 164801, 1533, 1478, 1499, 1499, 1898, 1402, 1898, 1498, 0, 0, 0, 0, 0, 0
CTUN, 164842, 501, 0, 311, 0, 2.82, 1.90, 0.00, 0.00, 0, 33
GPS, 3, 120266400, 1902, 10, 1.41, 60.1915234, 24.7366076, 2.81, 10.94, 0.48, 252.24, -0.17, 164871
ATT, 164901, 0.00, 0.42, 0.00, -0.05, 188.73, 189.44, 0.05, 0.16
RCIN, 164901, 1525, 1479, 1499, 1499, 1898, 1402, 1898, 1498, 0, 0, 0, 0, 0, 0
CTUN, 164942, 501, 0, 311, 0, 2.8, 1.74, 0.00, 0.00, 0, 23
ATT, 165001, 0.00, 0.28, 0.00, -0.05, 188.73, 189.30, 0.05, 0.16
RCIN, 165001, 1524, 1485, 1499, 1499, 1898, 1402, 1898, 1498, 0, 0, 0, 0, 0, 0
CTUN, 165041, 501, 0, 311, 0, 2.76, 1.94, 0.00, 0.00, 0, 28
GPS, 3, 120266600, 1902, 10, 1.41, 60.191523, 24.7366062, 2.75, 10.99, 0.42, 252.24, -0.21, 165071
ATT, 165101, 0.00, 0.12, 0.00, 0.01, 188.73, 189.20, 0.17, 0.13
RCIN, 165102, 1520, 1486, 1499, 1499, 1898, 1402, 1898, 1498, 0, 0, 0, 0, 0, 0
CTUN, 165143, 501, 0, 311, 0, 2.74, 2.07, 0.00, 0.00, 0, 27
RAD, 165183, 35, 0, 77, 25, 0, 7, 24
RAD, 165183, 35, 0, 77, 25, 0, 7, 24
ATT, 165202, 0.00, 0.38, 0.00, -0.10, 188.73, 189.17, 0.17, 0.14
RCIN, 165202, 1522, 1486, 1499, 1499, 1898, 1402, 1898, 1498, 0, 0, 0, 0, 0, 0
CTUN, 165243, 501, 0, 311, 0, 2.73, 1.81, 0.00, 0.00, 0, 23
GPS, 3, 120266800, 1902, 10, 1.41, 60.1915226, 24.7366049, 2.72, 11.05, 0.48, 246.90, -0.28, 165272
ATT, 165303, 0.00, 0.28, 0.00, 0.03, 188.73, 189.11, 0.06, 0.14
RCIN, 165303, 1522, 1486, 1499, 1499, 1898, 1402, 1898, 1498, 0, 0, 0, 0, 0, 0
CTUN, 165343, 501, 0, 311, 0, 2.7, 2.02, 0.00, 0.00, 0, 26
ATT, 165403, 0.00, 0.43, 0.00, 0.00, 188.73, 189.07, 0.06, 0.14
RCIN, 165403, 1529, 1488, 1499, 1499, 1898, 1402, 1898, 1498, 0, 0, 0, 0, 0, 0
CTUN, 165443, 501, 0, 311, 0, 2.68, 2.04, 0.00, 0.00, 0, 21
GPS, 3, 120267000, 1902, 10, 1.41, 60.1915221, 24.7366035, 2.68, 11.08, 0.50, 241.57, -0.09, 165453
ATT, 165502, 0.24, 0.50, 0.00, 0.10, 188.73, 189.05, 0.04, 0.17
RCIN, 165503, 1535, 1486, 1499, 1499, 1898, 1402, 1898, 1498, 0, 0, 0, 0, 0, 0
CTUN, 165542, 501, 0, 311, 0, 2.66, 1.92, 0.00, 0.00, 0, 16
ATT, 165602, 0.73, 0.83, 0.00, 0.00, 188.73, 189.03, 0.04, 0.11
RCIN, 165602, 1537, 1486, 1499, 1499, 1898, 1402, 1898, 1498, 0, 0, 0, 0, 0, 0
CTUN, 165643, 501, 0, 311, 0, 2.63, 1.92, 0.00, 0.00, 0, 18
DU32, 7, 150905
CURR, 165643, 311, 40119, 1491, 4895, 4752, 172.7883
GPS, 3, 120267200, 1902, 10, 1.41, 60.1915216, 24.736602, 2.62, 11.12, 0.48, 237.58, -0.08, 165672
ATT, 165702, 0.00, 1.20, 0.00, 0.01, 188.73, 188.94, 0.02, 0.14
RCIN, 165702, 1523, 1488, 1499, 1499, 1898, 1402, 1898, 1498, 0, 0, 0, 0, 0, 0
CTUN, 165742, 501, 0, 311, 0, 2.61, 2.06, 0.00, 0.00, 0, 9
ATT, 165802, 0.00, 0.63, 0.00, -0.15, 188.73, 188.88, 0.02, 0.17
RCIN, 165802, 1523, 1488, 1499, 1499, 1898, 1402, 1898, 1498, 0, 0, 0, 0, 0, 0
CTUN, 165843, 501, 0, 311, 0, 2.59, 2.02, 0.00, 0.00, 0, 17
RAD, 165844, 34, 0, 86, 25, 0, 7, 24
RAD, 165844, 34, 0, 86, 25, 0, 7, 24
GPS, 3, 120267400, 1902, 10, 1.41, 60.1915212, 24.7366004, 2.58, 11.12, 0.42, 237.58, -0.06, 165872
ATT, 165902, 0.00, 0.28, 0.00, -0.29, 188.73, 188.84, 0.11, 0.07
RCIN, 165903, 1523, 1488, 1499, 1499, 1898, 1402, 1898, 1498, 0, 0, 0, 0, 0, 0
CTUN, 165943, 501, 0, 311, 0, 2.57, 1.94, 0.00, 0.00, 0, 5
ATT, 166002, 0.00, 0.31, 0.00, -0.04, 188.73, 188.75, 0.11, 0.12
RCIN, 166002, 1522, 1488, 1499, 1499, 1898, 1402, 1898, 1498, 0, 0, 0, 0, 0, 0
CTUN, 166043, 501, 0, 311, 0, 2.54, 2.09, 0.00, 0.00, 0, 6
GPS, 3, 120267600, 1902, 10, 1.41, 60.1915208, 24.7365987, 2.53, 11.20, 0.61, 233.33, -0.08, 166053
ATT, 166102, 0.00, 0.21, 0.00, 0.05, 188.73, 188.64, 0.10, 0.12
RCIN, 166102, 1521, 1489, 1499, 1501, 1898, 1402, 1898, 1497, 0, 0, 0, 0, 0, 0
CTUN, 166143, 501, 0, 311, 0, 2.52, 2.08, 0.00, 0.00, 0, 7
ATT, 166202, 0.00, -0.11, 0.00, -0.02, 188.73, 188.50, 0.10, 0.10
RCIN, 166202, 1524, 1499, 1499, 1499, 1898, 1402, 1898, 1498, 0, 0, 0, 0, 0, 0
CTUN, 166243, 501, 0, 311, 0, 2.5, 2.12, 0.00, 0.00, 0, 7
GPS, 3, 120267800, 1902, 10, 1.41, 60.19152, 24.7365973, 2.50, 11.19, 0.45, 233.33, -0.09, 166252
ATT, 166302, 0.00, -0.15, 0.00, 0.06, 188.73, 188.38, 0.13, 0.12
RCIN, 166302, 1534, 1489, 1499, 1499, 1898, 1402, 1898, 1497, 0, 0, 0, 0, 0, 0
CTUN, 166342, 501, 0, 311, 0, 2.48, 2.22, 0.00, 0.00, 0, 4
ATT, 166402, 0.12, 0.02, 0.00, 0.00, 188.73, 188.30, 0.13, 0.14
RCIN, 166402, 1532, 1486, 1499, 1499, 1898, 1402, 1898, 1498, 0, 0, 0, 0, 0, 0
CTUN, 166443, 501, 0, 311, 0, 2.47, 2.17, 0.00, 0.00, 0, 6
GPS, 3, 120268000, 1902, 10, 1.41, 60.1915193, 24.7365962, 2.47, 11.22, 0.47, 233.33, -0.15, 166453
ATT, 166502, 0.00, 0.15, 0.00, 0.00, 188.73, 188.25, 0.03, 0.12
RCIN, 166503, 1523, 1488, 1499, 1499, 1898, 1402, 1898, 1498, 0, 0, 0, 0, 0, 0
CTUN, 166543, 501, 0, 311, 0, 2.46, 2.23, 0.00, 0.00, 0, 2
ATT, 166602, 0.00, 0.00, 0.00, 0.11, 188.73, 188.21, 0.03, 0.12
RCIN, 166603, 1528, 1488, 1499, 1499, 1898, 1402, 1898, 1498, 0, 0, 0, 0, 0, 0
CTUN, 166643, 501, 0, 311, 0, 2.44, 2.26, 0.00, 0.00, 0, -8
DU32, 7, 150905
CURR, 166644, 311, 43229, 1496, 4934, 4813, 186.4286
GPS, 3, 120268200, 1902, 10, 1.41, 60.1915185, 24.7365951, 2.43, 11.22, 0.39, 233.33, -0.01, 166672
ATT, 166702, 0.00, -0.06, 0.00, 0.11, 188.73, 188.19, 0.03, 0.08
RCIN, 166702, 1530, 1488, 1499, 1499, 1898, 1402, 1898, 1497, 0, 0, 0, 0, 0, 0
CTUN, 166743, 501, 0, 311, 0, 2.42, 2.34, 0.00, 0.00, 0, -3
RAD, 166793, 33, 0, 92, 23, 0, 7, 24
RAD, 166794, 33, 0, 92, 23, 0, 7, 24
ATT, 166803, 0.12, -0.08, 0.00, -0.10, 188.73, 188.23, 0.03, 0.12
RCIN, 166803, 1528, 1488, 1499, 1499, 1898, 1402, 1898, 1498, 0, 0, 0, 0, 0, 0
CTUN, 166843, 501, 0, 311, 0, 2.42, 2.20, 0.00, 0.00, 0, 9
GPS, 3, 120268400, 1902, 10, 1.41, 60.1915179, 24.7365944, 2.42, 11.26, 0.32, 233.33, -0.13, 166872
ATT, 166902, 0.12, -0.05, 0.00, -0.05, 188.73, 188.26, 0.09, 0.08
RCIN, 166903, 1532, 1488, 1499, 1499, 1898, 1402, 1898, 1498, 0, 0, 0, 0, 0, 0
CTUN, 166943, 501, 0, 311, 0, 2.41, 2.30, 0.00, 0.00, 0, 3
ATT, 167002, 0.49, 0.00, 0.00, -0.03, 188.73, 188.29, 0.09, 0.10
RCIN, 167003, 1535, 1486, 1499, 1499, 1898, 1402, 1898, 1498, 0, 0, 0, 0, 0, 0
CTUN, 167043, 501, 0, 311, 0, 2.41, 2.41, 0.00, 0.00, 0, 0
GPS, 3, 120268600, 1902, 10, 1.41, 60.1915172, 24.7365938, 2.41, 11.30, 0.45, 220.09, -0.15, 167053
ATT, 167102, 0.49, 0.37, 0.00, -0.11, 188.73, 188.30, 0.15, 0.13
RCIN, 167103, 1535, 1486, 1499, 1499, 1898, 1402, 1898, 1498, 0, 0, 0, 0, 0, 0
CTUN, 167143, 501, 0, 311, 0, 2.41, 2.29, 0.00, 0.00, 0, 3
ATT, 167202, 0.24, 0.65, 0.00, -0.14, 188.73, 188.24, 0.15, 0.12
RCIN, 167203, 1533, 1486, 1499, 1499, 1898, 1402, 1898, 1498, 0, 0, 0, 0, 0, 0
CTUN, 167243, 501, 0, 311, 0, 2.4, 2.42, 0.00, 0.00, 0, -5
GPS, 3, 120268800, 1902, 10, 1.41, 60.1915163, 24.7365931, 2.40, 11.27, 0.35, 220.09, -0.08, 167253
ATT, 167302, 0.36, 0.46, 0.00, -0.33, 188.73, 188.16, 0.05, 0.11
RCIN, 167303, 1534, 1489, 1499, 1499, 1898, 1402, 1898, 1498, 0, 0, 0, 0, 0, 0
CTUN, 167343, 501, 0, 311, 0, 2.4, 2.34, 0.00, 0.00, 0, -5
ATT, 167403, 0.36, 0.38, 0.00, -0.26, 188.73, 188.05, 0.05, 0.11
RCIN, 167403, 1534, 1489, 1499, 1499, 1898, 1402, 1898, 1498, 0, 0, 0, 0, 0, 0
CTUN, 167443, 501, 0, 311, 0, 2.39, 2.37, 0.00, 0.00, 0, -9
GPS, 3, 120269000, 1902, 10, 1.41, 60.1915157, 24.7365926, 2.39, 11.33, 0.42, 205.74, -0.08, 167453
ATT, 167502, 0.61, 0.40, 0.00, -0.28, 188.73, 187.92, 0.02, 0.08
RCIN, 167503, 1537, 1489, 1499, 1506, 1898, 1402, 1898, 1498, 0, 0, 0, 0, 0, 0
CTUN, 167543, 501, 0, 311, 0, 2.38, 2.45, 0.00, 0.00, 0, -7
ATT, 167603, 0.24, 0.27, 0.00, -0.32, 188.73, 187.80, 0.02, 0.11
RCIN, 167603, 1533, 1491, 1499, 1527, 1898, 1402, 1898, 1498, 0, 0, 0, 0, 0, 0
CTUN, 167643, 501, 0, 311, 0, 2.38, 2.37, 0.00, 0.00, 0, -7
DU32, 7, 150905
CURR, 167653, 311, 46339, 1488, 4933, 4813, 200.0947
